小区,小区地址,PRI,FAR,GRE,CAR,PRO,AGE_medium,AGE_new,AGE_old,latitude,longitude
骏景花园,天河-棠下-中山大道190号,50054,2.17,0.4,1,2.8,False,True,False,40.82838390336552,116.4898502468795
富力天朗明居,天河-车陂-车陂路407号,43478,3.31,0.32,1,1.2,True,False,False,23.126222024676977,113.39947347621538
帝景苑,天河-天河北-天河北路550-590号,67770,1.34,0.3,1,2.79,True,False,False,23.146769774210373,113.34262762559615
盈彩美居,天河-东圃-盈溪路,52583,2.88,0.3,1,1.2,True,False,False,23.12432511045114,113.41569687372022
美林湖畔花园,天河-东圃-桃园南一街,61405,2.0,0.3,1,0.9,True,False,False,23.13035783510465,113.36850942427998
美林海岸花园,天河-员村-棕林街61号,74520,2.44,0.33,1,1.2,True,False,False,40.82838390336552,116.4898502468795
南国花园,天河-珠江新城东-平月路161号,103521,2.0,0.4,1,2.0,True,False,False,23.11985641173335,113.35210762330091
中海康城花园,天河-黄村-广园快速路,44901,1.74,0.4,1,2.37,True,False,False,23.132455976133322,113.41956767216145
世纪绿洲,天河-龙洞-品翠街30号,44157,2.5,0.4,1,1.8,True,False,False,23.13035783510465,113.36850942427998
东方新世界,天河-天河公园-中山大道西158号,83622,3.99,0.42,1,2.3,False,True,False,23.139163108071326,113.36632600290815
金燕花苑,天河-燕塘-粤垦路614-624号,35440,3.8,0.35,1,1.0,False,False,True,23.162700229341745,113.33546381881754
乐意居花苑,天河-长兴-美景街18号,36173,1.84,0.3,1,0.75,True,False,False,23.13035783510465,113.36850942427998
芳草园小区,天河-天河北-天河北路571号,81008,3.8,0.38,1,2.3,False,False,True,23.147608664863654,113.34348892091883
旭景家园,天河-东圃-中山大道,41476,2.15,0.36,1,0.9,True,False,False,23.126563682385086,113.40897413494686
碧海湾,天河-珠江新城西-临江大道39号,106060,3.5,0.3,1,2.8,True,False,False,23.13035783510465,113.36850942427998
宝翠园,天河-龙洞-宝翠路4号,58707,2.66,0.45,1,1.9,False,True,False,23.196824995212097,113.3699550673367
保利心语花园,天河-珠江新城中-金穗路70号,112531,4.54,0.36,1,2.6,False,True,False,23.128341916780332,113.33668749058282
东圃广场,天河-东圃-黄村西路8号,41175,3.41,0.35,1,1.2,False,False,True,23.128373655912362,113.41113734444474
天鹅花苑,天河-长兴-长兴路129号,33980,2.51,0.2,1,0.75,True,False,False,23.174841894714152,113.3579246904594
棠德花苑,天河-棠东-棠德西路56号,25548,2.5,0.3,1,0.54,False,False,True,23.13954211831727,113.39016595316848
星汇园,天河-珠江新城西-华明路,94280,5.47,0.35,1,2.3,True,False,False,23.12490341043514,113.33991222770148
君林天下,天河-龙洞-绿洲街38号,43391,2.3,0.45,1,2.4,False,True,False,23.19597072108756,113.37346672323515
羊城花园,天河-东圃-中山大道前进1号,36408,2.12,0.25,1,1.0,False,False,True,23.126563682385086,113.40897413494686
天雅居,天河-黄村-黄村路138号,31558,2.1,0.29,1,1.2,False,False,True,40.82838390336552,116.4898502468795
天一庄,天河-员村-康湖大街,54160,2.5,0.35,1,1.78,False,True,False,40.82838390336552,116.4898502468795
跑马地花园,天河-珠江新城东-黄埔大道西868号,61809,3.27,0.23,1,1.7,False,False,True,23.12490341043514,113.33991222770148
加拿大花园,天河-天河公园-枫叶路8号,38294,4.62,0.45,1,1.6,False,False,True,23.14258271828587,113.37381275051747
美好居,天河-车陂-中山大道中29号,37011,3.0,0.32,1,1.0,False,False,True,23.126222024676977,113.39947347621538
跑马地花园三期,天河-珠江新城东-平云路177号,54373,3.0,0.4,1,0.9,False,True,False,23.13035783510465,113.36850942427998
广海花园,天河-天河公园-建中路7号,40420,1.2,0.4,1,0.5,False,False,True,23.134028666973904,113.37926735140282
华景新城(天河),天河-天河公园-华景路109号,52892,1.67,0.3,1,1.9,False,False,True,23.146215661507952,113.36609244347562
阳光桃源,天河-东圃-桃园路3号,48277,2.3,0.4,1,2.8,False,True,False,23.119307504461883,113.41863720731452
城市假日园,天河-东圃-旭景西路,63469,3.22,0.25,1,1.6,False,True,False,23.12432511045114,113.41569687372022
侨怡苑,天河-天河北-天河北路382-388号,61118,2.24,0.4,1,0.68,False,False,True,23.146950961084563,113.33622872595903
东方新世界熹园,天河-天河公园-中山大道西158号,108935,3.75,0.42,1,2.3,False,True,False,23.139163108071326,113.36632600290815
富力新村,天河-东圃-东圃大马路,32088,2.1,0.15,1,0.6,False,False,True,23.12432511045114,113.41569687372022
华港花园,天河-天河公园-东方一路24号,61074,3.63,0.3,1,1.5,True,False,False,23.1387009334356,113.36498707854597
体育西小区,天河-体育西路-体育西横街,48504,2.0,0.4,1,2.0,False,False,True,23.134587400181903,113.33126154564324
东方之珠花园,天河-天河北-天河北路715号,54096,4.11,0.4,1,2.0,False,False,True,23.14744600456382,113.35076025486696
华南御景园,天河-岑村-岑村路,46219,1.24,0.48,1,1.8,False,True,False,40.82838390336552,116.4898502468795
名雅苑(天河),天河-体育中心-华康街9号,62770,1.8,0.4,1,0.9,False,False,True,23.143232385236846,113.33157505426612
五山花园,天河-五山-茶山路225号,59048,2.14,0.35,1,0.7,False,False,True,23.154313368591847,113.35982990661488
阳华国花苑,天河-车陂-天坤三路,52764,3.0,0.25,1,2.1,True,False,False,23.131891833450005,113.40045622244298
安厦花园,天河-东圃-安厦一街,37600,3.46,0.31,1,1.5,False,True,False,23.12432511045114,113.41569687372022
新燕花园,天河-燕塘-燕岭路28号,46670,2.05,0.42,1,1.5,True,False,False,23.168465410368526,113.33456901669933
新世界东逸花园,天河-天河公园-东方三路200号,89716,2.15,0.35,1,2.0,False,True,False,23.134530571514112,113.36595769764918
金田花苑,天河-天河北-天河北路333-560号,56814,8.62,0.43,1,1.5,False,False,True,23.147109800543056,113.33698896191187
瑜翠园,天河-龙洞-荟龙路10号,33521,2.48,0.3,1,1.96,False,True,False,23.215594961194025,113.37128707474646
保利丰兴广场,天河-体育中心-天河南二路27号,63358,2.5,0.35,1,1.95,True,False,False,23.143232385236846,113.33157505426612
广氮新村,天河-车陂-车陂北街22号,23875,6.0,0.3,1,0.6,False,False,True,23.13035783510465,113.36850942427998
富力花园,天河-东圃-富力街1-39号,27000,2.0,0.15,1,0.6,False,False,True,23.12432511045114,113.41569687372022
东晖花园,天河-天河公园-天府路153号,70835,3.0,0.3,1,1.5,False,False,True,23.135434177679596,113.36908469912838
荟雅苑,天河-林和-天河北路253号,67723,3.12,0.26,1,2.7,False,False,True,23.148595754392343,113.33302114647562
珠江嘉苑,天河-岑村-沐陂西路18号,33620,2.5,0.3,1,2.8,False,True,False,40.82838390336552,116.4898502468795
育龙居,天河-龙洞-天源路1111号,37168,2.3,0.4,1,1.0,False,False,True,23.194958323947255,113.36940683148416
富力院士庭,天河-东莞庄-东莞庄路72号,55830,3.2,0.3,1,2.8,False,True,False,23.156957142787252,113.34267388832988
富力天河华庭,天河-林和-华庭路3-5号,99275,2.5,0.3,1,2.5,False,True,False,23.15044214534278,113.33508087117876
金海花园,天河-天河北-天河北路614号,71612,2.83,0.3,1,2.5,False,False,True,23.146837978927074,113.3452175302111
名门大厦,天河-珠江新城西-花城大道2-12号,51891,7.5,0.1,1,2.1,False,True,False,23.13035783510465,113.36850942427998
宝兴翠园,天河-东圃-中山大道中1118号,68381,2.0,0.35,1,2.8,False,True,False,23.126563682385086,113.40897413494686
海景花园,天河-天河公园-黄埔大道中203号,65953,3.8,0.4,1,1.8,True,False,False,23.12908994461827,113.37152602401203
天文苑,天河-体育西路-体育西路105号,77829,6.26,0.3,1,1.9,True,False,False,23.141498216001693,113.32708774875363
天河广场,天河-东圃-中山大道中268号,30970,3.0,0.15,1,1.3,False,False,True,23.126563682385086,113.40897413494686
保利天汇,天河-小新塘-棠馨南大街1号,52040,2.55,0.16,1,2.8,False,True,False,23.175176034953143,113.35914342154439
陶然庭苑,天河-天河公园-华景北路255号,58225,3.6,0.35,1,1.8,False,True,False,23.14732737373913,113.36983172999022
育蕾小区,天河-体育西路-体育西路三街12号,52053,1.5,0.4,1,0.6,False,False,True,23.1362916673167,113.32804785768236
金碧翡翠华庭,天河-龙口西-天润路467号,70009,7.14,0.35,1,1.88,True,False,False,23.149008299478098,113.34828416556006
嘉宝华庭,天河-体育中心-天河东路220号,60909,4.9,0.35,1,2.5,False,True,False,23.143232385236846,113.33157505426612
尚东美御,天河-珠江新城中-猎德大道46-48号,105211,7.0,0.35,1,2.8,False,True,False,23.13035783510465,113.36850942427998
珠江花城,天河-珠吉-东圃岐山183号,46557,3.2,0.35,1,2.8,False,True,False,23.127342462582572,113.40987962690063
珠江俊园,天河-天河公园-俊华街5号,70172,1.77,0.28,1,1.95,True,False,False,23.143446475553592,113.3731141383226
金穗大厦,天河-体育西路-广州大道中900号,39122,6.0,0.3,1,1.8,False,False,True,23.1362916673167,113.32804785768236
骏逸苑,天河-珠江新城中-潭村路10号,80704,1.96,0.25,0,1.5,True,False,False,23.12490341043514,113.33991222770148
鸿翔大厦,天河-龙口东-天河北路615号,52285,2.5,0.12,1,1.9,False,False,True,23.14522373583136,113.34478912831354
华标广场,天河-龙口东-天河北路601号,66946,4.8,0.45,1,1.95,True,False,False,23.14522373583136,113.34478912831354
天力居,天河-东圃-东圃大马路2号,34797,3.11,0.4,1,0.8,False,False,True,23.12775789877772,113.40829681259258
阳光假日园,天河-棠东-泰安南路98-112号,46566,3.0,0.39,1,2.6,False,True,False,23.134861323988936,113.3982133332464
天河北苑,天河-沙太南-沙太南路274-320号,34606,1.37,0.4,1,0.6,False,False,True,23.09373559819642,113.30508941461868
尚德大厦,天河-天河北-五山路141号,51507,8.26,0.16,1,2.5,False,True,False,23.13035783510465,113.36850942427998
珠江新城海滨花园,天河-珠江新城东-临江大道399号,142399,2.94,0.3,1,2.5,False,False,True,23.13035783510465,113.36850942427998
南国嘉园苹果城,天河-东圃-中山大道中238号,45306,3.76,0.31,1,1.5,True,False,False,23.126563682385086,113.40897413494686
东成花苑,天河-员村-黄埔大道中187-1号,41079,3.0,0.2,1,0.4,False,True,False,40.82838390336552,116.4898502468795
阳光都会广场,天河-岗顶-石牌东路133号,56113,3.57,0.5,1,1.79,True,False,False,23.13668489271233,113.34977840694486
MBA国际公寓,天河-岗顶-黄埔大道西505号,35807,2.5,0.3,1,2.5,False,True,False,23.131928806055765,113.34557730156773
天成大厦,天河-龙口东-龙口西路98号,59685,2.3,0.2,1,1.8,False,False,True,23.14522373583136,113.34478912831354
东荣翰林苑,天河-长兴-长兴路297-299号,51562,3.0,0.37,1,1.8,False,True,False,23.17406746353384,113.3661392451927
理想蓝堡国际花园,天河-天河公园-东方三路,76654,4.5,0.3,1,2.1,True,False,False,23.134102943315984,113.37180072583689
南雅苑小区,天河-体育西路-体育东横街6号,55856,2.5,0.36,1,0.6,False,False,True,23.134789540552827,113.33567887315655
德荣小区,天河-天河北-天河东路218-268号,52063,2.5,0.38,1,0.65,False,False,True,23.144686730424116,113.34009000236185
龙岗东小区,天河-沙河-龙岗东路,26200,1.5,0.15,1,0.8,True,False,False,23.155732038375074,113.31917421619663
珠江华景里,天河-天河公园-华景东路,83899,2.96,0.31,1,2.4,False,True,False,23.134102943315984,113.37180072583689
丽晶华庭,天河-珠江新城西-金穗路22-30号,54535,2.0,0.1,1,1.8,False,False,True,23.129243155619754,113.32429204234639
伟腾天逸名都,天河-天河北-龙口中路152号,58407,2.5,0.3,1,1.5,True,False,False,23.145076109407054,113.34646608503901
星汇雅苑,天河-珠江新城东-潭村路16号,94803,2.8,0.35,1,0.9,False,True,False,23.12490341043514,113.33991222770148
时尚明苑,天河-车陂-中山大道中77号,48840,3.05,0.4,1,1.6,False,True,False,23.131891833450005,113.40045622244298
芳满庭园,天河-天河公园-华景北路,60435,3.2,0.35,1,1.5,False,True,False,23.134102943315984,113.37180072583689
南兴花园,天河-天河客运站-元岗路337号,35294,2.92,0.45,1,0.8,True,False,False,23.18362685290324,113.34512599287967
建设局宿舍(天河林和西路),天河-林和-天河林和西路115号,40600,1.5,0.28,1,0.9,False,False,True,23.15212892966442,113.32889109706431
建丽花园,天河-长兴-长兴路342-472号,38314,1.4,0.35,0,1.0,False,True,False,23.17213003680675,113.36520428881822
边检大院,天河-天河北-龙口西路187号,56561,1.1,0.25,0,1.45,False,False,True,23.14339505070891,113.34254902386405
半山翠庭,天河-五山-贤韵街17-45号,45943,2.9,0.35,1,1.0,False,False,True,23.13035783510465,113.36850942427998
华康小区,天河-天河北-华康街22-24号,56659,3.1,0.3,1,0.9,False,False,True,23.13035783510465,113.36850942427998
邮通住宅小区,天河-天河公园-中山大道西139号,53000,3.5,0.3,1,0.9,False,False,True,23.142293690238986,113.36946746710606
侨源新邨,天河-粤垦-燕都路44号-56号,27000,3.0,0.3,0,1.2,False,False,True,23.164950778827855,113.33733678580522
雅怡居,天河-东圃-雅怡街40号,30163,3.59,0.2,1,0.6,False,False,True,23.124484974089658,113.40895634849778
华南农业大学嵩山区,天河-五山-五山路483号,81797,1.2,0.2,1,0.4,False,False,True,23.13035783510465,113.36850942427998
春江花园,天河-棠东-棠东东路112-128号,35381,3.1,0.3,1,1.5,True,False,False,23.13035783510465,113.36850942427998
龙口花苑,天河-天河北-龙口西路,59792,2.18,0.32,1,2.5,True,False,False,23.13035783510465,113.36850942427998
美林湖畔誉府,天河-东圃-桃园西路632-616号,62291,2.08,0.37,1,2.75,False,True,False,23.124057728945285,113.41982324007894
半山溪谷E墅,天河-东圃-悦景路2号,57446,1.0,0.5,1,2.8,False,True,False,23.14904194435896,113.42305013313083
瑞华大厦,天河-华师-五山路263-265号,41472,2.5,0.2,1,1.7,False,False,True,23.148693449438113,113.35225341828513
天晟明苑,天河-岗顶-石牌西路111-119号,47492,2.5,0.25,1,2.0,True,False,False,23.133437778081312,113.34477592322254
天一新村,天河-东莞庄-东莞庄路126号-6号(单号),37681,1.2,0.3,1,0.55,False,True,False,23.16201460737996,113.34337986662995
燕塘大院,天河-燕塘-燕塘路,33821,2.4,0.39,1,0.5,True,False,False,23.167974266300003,113.33426979113408
仙湖名苑,天河-天河公园-华翠街66号,57427,2.5,0.3,1,1.2,False,False,True,23.132124968405115,113.37434257110709
南苑小区,天河-岗顶-黄埔大道西463号,52913,1.5,0.2,1,1.5,False,False,True,23.131928806055765,113.3459545898818
都市华庭(天河),天河-天河北-天河北路358-378号,66968,3.8,0.35,1,2.6,True,False,False,23.14640532283318,113.33553541376665
金富苑,天河-龙怡路-五山路269-291号,52002,1.8,0.3,1,0.8,False,False,True,23.150227567890504,113.35165128410199
天鑫六运小区,天河-体育西路-天河南一路,51094,1.5,0.3,1,0.6,False,False,True,23.136141372324325,113.33015986376618
叠翠台,天河-天河公园-天府路289号,66733,3.72,0.2,1,1.5,False,False,True,23.138515830505085,113.36868522266823
远东大厦,天河-天河北-林和街230-244号,59788,10.13,0.32,1,2.0,False,False,True,23.14845726988007,113.33714580605387
君怡大厦,天河-珠江新城东-金穗路935号,74126,3.0,0.35,1,2.1,False,False,True,23.128945042076563,113.34764987203968
领汇国际公寓,天河-东圃-菁映路,36586,2.9,0.3,1,1.98,False,True,False,23.12432511045114,113.41569687372022
金兴花园,天河-员村-金兴一街,48943,2.4,0.12,1,0.5,False,False,True,40.82838390336552,116.4898502468795
祥龙花园,天河-林和-天河北路177号,45531,2.5,0.15,0,0.9,False,False,True,23.147118606490725,113.32859267997398
远洋明苑,天河-黄村-杨桃西路636-637号,36519,3.39,0.4,1,1.25,True,False,False,23.124760497455245,113.41892179049998
园田居,天河-华师-天华街,41000,2.6,0.3,1,0.5,False,False,True,23.141840415895825,113.35643628806042
暨南大学苏州苑,天河-岗顶-黄埔大道西601号,56202,1.2,0.2,0,0.5,False,False,True,23.131928806055765,113.34471492827844
暨南大学羊城苑,天河-岗顶-黄埔大道西601号,65506,1.2,0.2,0,0.5,False,False,True,23.131928806055765,113.34471492827844
骏汇大厦,天河-体育西路-体育西路5-9号,57023,2.5,0.1,1,2.3,True,False,False,23.135120458546602,113.32737547600837
珠江太阳城广场,天河-珠江新城东-平川路611-613号,89749,5.0,0.46,1,1.95,False,True,False,23.13035783510465,113.36850942427998
华师北区宿舍,天河-华师-翰景街,84640,1.2,0.2,1,0.5,False,False,True,23.141840415895825,113.35643628806042
保利香槟花园,天河-珠江新城西-华穗路121号,115327,4.7,0.36,1,2.1,True,False,False,23.12272812527489,113.32459971198345
天河豪景花园,天河-沙河-广州大道北52号,33685,4.8,0.31,1,1.25,False,True,False,23.16070831078783,113.32218300067076
恒城大厦,天河-体育中心-黄埔大道西55号,43200,2.0,0.3,1,2.1,False,False,True,23.143232385236846,113.33157505426612
太阳广场,天河-龙怡路-龙口东路331-337号,49341,6.5,0.32,1,1.6,False,False,True,23.149770000873364,113.34696922595498
翠安侬苑,天河-天河公园-华景北路35-40号,57992,2.0,0.38,1,1.5,True,False,False,23.134102943315984,113.37180072583689
岗顶百脑汇,天河-岗顶-天河路596号,34696,2.5,0.3,0,0.9,False,True,False,40.82838390336552,116.4898502468795
东方都会广场,天河-天河公园-中山大道西192号,53017,2.5,0.1,1,1.87,False,True,False,23.134102943315984,113.37180072583689
银汇华庭,天河-龙怡路-龙怡路115号,74904,4.75,0.34,1,2.1,False,True,False,23.149712763348433,113.35137074329133
天诚广场,天河-龙口东-龙口东路346-350号,56555,5.9,0.35,1,1.5,False,False,True,23.14522373583136,113.34478912831354
理想青年荟,天河-天河公园-东方三路35号,67524,4.49,0.3,1,1.96,False,True,False,23.13494598519061,113.36571515516157
伊顿18,天河-天河北-龙口西路194号,70978,6.67,0.28,1,2.35,True,False,False,23.143398207646637,113.34286801215055
南粤阁,天河-天河北-林和西横路215号,41223,8.5,0.3,1,1.0,True,False,False,23.13035783510465,113.36850942427998
易丰大厦,天河-员村-翠园街8号,57500,2.18,0.3,1,1.96,False,True,False,40.82838390336552,116.4898502468795
汇友苑,天河-东圃-东圃大马路9-13号,41482,3.0,0.25,1,1.0,True,False,False,23.124308077151888,113.40848042623875
华南植物园宿舍,天河-龙洞-天源路1190号,41600,1.5,0.2,1,0.5,False,False,True,23.19122066693329,113.36932616364939
漾晴居,天河-珠江新城西-华明路21号,86730,6.86,0.44,1,2.1,True,False,False,23.128963902680116,113.32452784754268
穗东花园,天河-天河公园-华翠街13-41号,44473,1.8,0.3,1,0.58,False,False,True,23.130336399049067,113.37550659538654
金鼎大厦,天河-天河北-龙口西路373号,40086,8.0,0.25,1,1.5,False,False,True,23.15055354604333,113.3425720204851
雅怡阁,天河-东圃-东圃大马路3-25号,30000,2.5,0.2,1,1.0,False,False,True,23.126433732913043,113.41000179644995
华景新城六期西区,天河-天河公园-华景路,53000,3.8,0.3,1,1.9,False,False,True,23.134102943315984,113.37180072583689
金润大厦,天河-天河北-龙口西路361号,50201,6.94,0.2,1,1.77,False,False,True,23.149837788679324,113.34294176303288
保林苑,天河-珠江新城西-华就路6号,103000,3.44,0.3,1,2.0,False,True,False,23.12490341043514,113.33991222770148
绿佳花园,天河-粤垦-燕都路62-76号,31242,2.6,0.35,1,1.5,False,False,True,23.165159684097826,113.33879123225596
金山轩,天河-天河北-五山路242号,54176,1.1,0.35,1,0.7,False,False,True,23.13035783510465,113.36850942427998
南天广场,天河-珠江新城西-花城大道1号,51024,5.39,0.39,1,2.09,True,False,False,23.13035783510465,113.36850942427998
金建苑,天河-粤垦-燕岭路,34134,2.83,0.4,1,0.5,False,False,True,23.170650742653155,113.33989812430497
丰乐苑,天河-珠江新城中-潭乐街102-120号,58593,2.5,0.3,0,0.9,True,False,False,23.13035783510465,113.36850942427998
天寿大厦,天河-天河北-天寿路105号,82900,8.7,0.3,1,2.5,False,False,True,23.153623965018806,113.33905210017596
银燕大厦天鸿阁,天河-粤垦-燕岭路25-27号,24800,2.5,0.2,1,1.0,False,False,True,23.164695025167806,113.33211197146926
华南师范大学教师新村,天河-华师-青松东路,69915,2.5,0.3,1,1.0,False,False,True,23.141840415895825,113.35643628806042
华骏花园,天河-珠江新城东-马场路519号,100626,3.0,0.3,1,1.0,False,False,True,23.127866576671636,113.34936833047969
白马花园,天河-员村-白马岗街,24800,3.0,0.1,1,0.9,False,False,True,40.82838390336552,116.4898502468795
喜洋居,天河-天河公园-中山大道西,46178,2.5,0.25,1,0.9,False,True,False,23.134102943315984,113.37180072583689
恒安大厦,天河-员村-黄埔大道中256号,43752,3.0,0.35,1,1.5,False,False,True,40.82838390336552,116.4898502468795
茶山小区,天河-五山-茶山路,64580,1.5,0.35,1,1.2,False,False,True,23.13035783510465,113.36850942427998
馨怡花苑,天河-龙怡路-龙口东路416-422号,43883,3.12,0.38,1,0.6,False,False,True,23.15010769345981,113.34797505863418
侨林苑(三期),天河-林和-侨林街,89746,2.0,0.4,1,2.3,True,False,False,40.82838390336552,116.4898502468795
尚雅小区,天河-体育西路-黄埔大道西196号,58724,1.5,0.41,1,0.65,False,False,True,23.131928806055765,113.34835306559265
信华经理人花园,天河-天河公园-华景东路216号,60057,3.84,0.3,1,1.2,True,False,False,23.14481583124207,113.37242549731889
华建小区,天河-天河公园-东方三路3-7号,50016,1.5,0.35,1,1.2,True,False,False,23.132572293913906,113.36376726949437
尚东宏御,天河-珠江新城东-花城大道760号,115984,2.5,0.35,1,2.8,False,True,False,23.13035783510465,113.36850942427998
天河东远洋小区,天河-天河北-天河东路171-173号,56264,2.0,0.15,1,0.75,False,False,True,23.143654251661463,113.3395017919141
信成小区,天河-天河北-天河东路197号,51609,2.0,0.3,1,0.7,False,False,True,23.13035783510465,113.36850942427998
希尔顿阳光,天河-天河北-龙口西路305号,69764,2.0,0.35,1,2.8,True,False,False,23.14639427380153,113.34206277109166
龙湖首开天宸原著,天河-黄村-悦景路,54507,2.1,0.35,1,2.8,False,True,False,23.152913208524623,113.41759445427888
翰景轩,天河-华师-翰景街2号,53500,3.0,0.4,1,1.5,False,True,False,23.148391973593107,113.35828410249383
金泽大厦,天河-体育西路-黄埔大道西201号,38800,2.55,0.2,0,0.9,False,False,True,23.131928806055765,113.34830815031717
兰亭荟,天河-珠江新城东-平云路165号,84396,1.42,0.34,1,2.8,False,True,False,23.13035783510465,113.36850942427998
光华大厦,天河-天河北-天河北路82-88号,45859,2.17,0.35,1,1.87,False,False,True,23.13035783510465,113.36850942427998
林和苑,天河-龙怡路-龙口东路389号,54500,2.7,0.35,1,1.2,False,False,True,23.15092222271241,113.34639673585367
隽悦园,天河-天河公园-天府路157号,85829,2.5,0.42,1,2.29,False,True,False,23.13591032148136,113.36899648552732
农科院(中区),天河-五山-金颖路,55681,1.32,0.25,1,0.65,False,False,True,23.151399972318238,113.35973872860565
体育西苑,天河-体育西路-天河直街148号,60213,3.5,0.4,1,2.0,True,False,False,23.143500226541164,113.32508138339773
朝晖苑,天河-林和-天寿路2-8号,65609,2.5,0.2,1,1.95,False,False,True,23.14854757143509,113.33850808635928
海景大厦,天河-天河公园-棠石路8号,42369,3.0,0.1,0,0.9,False,False,True,23.12891454937704,113.37487760186866
六运五街小区,天河-体育西路-六运五街,50769,2.0,0.3,1,0.65,False,False,True,23.13617751292677,113.33637065822955
聚龙阁,天河-天河北-龙口西路219号,54034,2.5,0.3,1,1.98,False,False,True,23.144004421374014,113.34239002378884
耀星华庭,天河-林和-天寿路25-27号,71235,3.0,0.23,1,2.5,True,False,False,23.149669814420157,113.33851635076999
华天国际广场,天河-龙口东-龙口中路201号,52945,3.8,0.1,1,1.5,False,False,True,23.14522373583136,113.34478912831354
鸿运花园(天河),天河-天河公园-路诚街1-50号,44712,3.5,0.35,1,0.65,False,False,True,23.13035783510465,113.36850942427998
富丽花苑(天河),天河-体育中心-体育东路64号,52264,1.5,0.2,0,0.9,False,False,True,23.143232385236846,113.33157505426612
紫藤阁,天河-天河公园-金兴一街45号,17857,2.4,0.2,0,0.5,False,False,True,23.130818460205994,113.36601734513502
紫林居,天河-员村-黄埔大道中195号,46326,0.5,0.35,1,0.45,False,False,True,40.82838390336552,116.4898502468795
中兴花园,天河-东圃-中山大道中1104号,41666,4.1,0.3,1,1.5,True,False,False,23.126563682385086,113.40897413494686
佳润上品菁园,天河-东圃-中山大道中438号,51000,2.53,0.35,1,2.7,False,True,False,23.126563682385086,113.40897413494686
燕东大厦,天河-燕塘-燕岭路390号,23972,3.0,0.35,1,1.0,False,True,False,23.169918315654943,113.33910554935379
汇富花园,天河-粤垦-燕都路34-42号,41166,2.0,0.15,1,0.8,False,False,True,23.16510253628735,113.3370286670154
富信广场,天河-沙河-禺东西路25号,32289,1.2,0.35,1,1.25,False,False,True,23.13035783510465,113.36850942427998
德埔小区,天河-岗顶-黄埔大道西321号,50939,1.5,0.36,1,0.9,False,False,True,23.131928806055765,113.34723018370555
西雅苑(天河),天河-天河北-体育西路127-131号,58964,2.0,0.3,1,2.4,False,False,True,23.13035783510465,113.36850942427998
力迅上筑,天河-珠江新城东-海明路22号,115114,4.02,0.35,1,2.5,False,True,False,23.12490341043514,113.33991222770148
广安楼,天河-天河北-禺东西路6号,22600,3.0,0.35,1,1.0,False,False,True,23.13035783510465,113.36850942427998
冠庭园,天河-沙太南-广州大道北649-3号,31819,2.23,0.4,1,2.0,True,False,False,23.13035783510465,113.36850942427998
华江花园,天河-天河公园-黄埔大道中103-113号,45556,3.3,0.4,1,0.4,False,False,True,23.12908994461827,113.37152602401203
君紫花园,天河-岗顶-新陶大街,49286,2.5,0.38,1,0.6,False,False,True,23.13517808920579,113.35017355177585
珠江苑,天河-天河北-天寿路37-85号,62000,2.5,0.2,1,0.7,False,False,True,23.150452778672452,113.33836435747774
天荣小区,天河-体育西路-天荣路,47688,2.1,0.3,1,1.5,False,False,True,23.13481114205389,113.3264884891481
睿山,天河-五山-茶山路,79525,2.8,0.41,1,2.5,False,True,False,23.13035783510465,113.36850942427998
侨景大厦,天河-天河北-信成南街15-17号,63433,1.6,0.4,1,1.51,False,False,True,23.13035783510465,113.36850942427998
沁馥佳苑,天河-天河公园-中山大道西105号,79810,3.7,0.4,1,1.9,False,True,False,23.14367867634046,113.36533553125318
广州有色金属研究院,天河-长兴-长兴路363号,35600,2.0,0.2,0,0.3,False,False,True,23.173818039914025,113.3685529920972
环宇花园,天河-天河公园-中山大道100-122号,46000,3.23,0.3,1,1.05,False,False,True,23.140184572271465,113.36012149658333
华南理工大学教工宿舍,天河-五山-五山路381号,66304,1.2,0.3,1,0.38,True,False,False,23.13035783510465,113.36850942427998
鸿燕居小区,天河-粤垦-燕都路35-89号,32263,2.31,0.43,1,0.7,False,False,True,23.165010501680236,113.33579196982022
恒达苑,天河-天河北-林和东路200号,59872,1.5,0.1,1,0.65,False,False,True,23.13035783510465,113.36850942427998
茶景苑,天河-五山-贤韵街10-20号,47504,2.6,0.32,1,0.8,False,False,True,23.13035783510465,113.36850942427998
粤韵庭园,天河-员村-黄埔大道中,57010,2.5,0.3,1,0.8,True,False,False,40.82838390336552,116.4898502468795
中强雅苑,天河-沙河-广州大道中1432号,41898,2.8,0.3,1,1.5,False,True,False,23.15563069345595,113.317463483184
天河东路小区,天河-天河北-天河东路,50000,2.0,0.4,0,0.9,False,False,True,23.13035783510465,113.36850942427998
林和西小区,天河-天河北-林和西路,36400,2.5,0.3,1,1.5,False,False,True,23.13035783510465,113.36850942427998
汇景新城柏菲美泉,天河-汇景新城-汇景南路,98295,1.0,0.4,1,2.6,False,True,False,23.154915711155226,113.37028717088364
福金莲花园,天河-员村-黄埔大道124号,43841,2.5,0.3,1,0.6,True,False,False,40.82838390336552,116.4898502468795
暨南大学明湖苑,天河-岗顶-黄埔大道西601号,90585,3.0,0.25,0,0.5,False,False,True,23.131928806055765,113.34471492827844
星海苑,天河-沙河-水荫路120-122号,47600,1.2,0.2,1,0.5,False,False,True,23.15121247802523,113.31748890522992
华南理工大学南秀村小区,天河-五山-六峰山路,61935,1.5,0.44,1,0.5,False,False,True,23.158792036924776,113.3585924907753
员村公安宿舍,天河-员村-百合路33号,53595,2.5,0.22,1,0.8,False,False,True,40.82838390336552,116.4898502468795
嘉怡花苑,天河-龙怡路-龙怡路93-111号,49854,3.0,0.3,1,0.6,False,False,True,23.14965909795426,113.34994091041156
鸿景园,天河-龙口东-龙口东路366-368号,47742,2.5,0.1,1,2.0,False,False,True,23.14522373583136,113.34478912831354
水荫一横路小区,天河-天河北-水荫一横路,24600,2.0,0.2,0,0.9,False,False,True,23.13035783510465,113.36850942427998
东荣文华轩,天河-长兴-长兴路35号,44804,2.9,0.37,1,2.29,False,True,False,23.17432220238991,113.35515674169243
翠屏富通雅苑,天河-东圃-东环路21号,51146,1.8,0.38,1,0.8,False,True,False,23.13035783510465,113.36850942427998
侨源阁,天河-粤垦-侨源大街1号,33800,2.0,0.3,0,1.0,False,True,False,23.15951995678293,113.33593677666839
员村白水塘小区,天河-员村-黄埔大道中,34402,2.6,0.25,0,0.6,False,False,True,40.82838390336552,116.4898502468795
双城国际公寓,天河-珠江新城西-花城大道21-25号,52265,3.5,0.34,1,2.8,True,False,False,23.13035783510465,113.36850942427998
嘉怡苑,天河-天河北-天河北路445号,54215,2.5,0.35,1,1.85,False,False,True,23.13035783510465,113.36850942427998
长兴小区,天河-长兴-长兴路318-1号,36031,1.0,0.3,1,1.1,False,True,False,23.173258143223194,113.36153803454154
华景新城六期东区,天河-天河公园-华景路,54738,3.2,0.3,1,1.2,False,False,True,23.134102943315984,113.37180072583689
天润大厦,天河-科韵路-黄埔大道中259号,34600,3.0,0.2,1,1.5,False,False,True,23.131928806055765,113.35011374439162
泽晖苑,天河-天河公园-华景路62-80号,54423,2.71,0.3,1,1.5,False,False,True,23.14416633820704,113.36662989966207
天河南一路小区,天河-体育中心-天河南一路,50750,2.0,0.4,0,0.6,False,False,True,23.143232385236846,113.33157505426612
天雅阁,天河-天河北-龙口西路558-574号(单号),45400,3.0,0.15,1,0.6,False,False,True,23.151225105030697,113.34339711409572
华翠街小区,天河-员村-华翠街23号,55380,2.0,0.3,1,1.2,True,False,False,40.82838390336552,116.4898502468795
天立大厦,天河-龙口东-五山路137号,52738,2.5,0.2,0,0.9,False,False,True,23.14522373583136,113.34478912831354
天惠大厦,天河-天河北-龙口中路194号,81468,3.5,0.25,1,0.9,True,False,False,23.14507187251794,113.34997100364613
省文化厅大院,天河-沙河-水荫四横路32号-45号,43756,1.2,0.26,1,1.3,False,False,True,23.13035783510465,113.36850942427998
先烈东横路36号大院,天河-沙河-先烈东横路36号,30000,0.5,0.3,1,0.9,True,False,False,23.157150942169103,113.3113173667173
恒业大厦,天河-员村-黄埔大道中156-162号,56333,3.0,0.3,1,1.5,False,True,False,40.82838390336552,116.4898502468795
水荫四横路小区,天河-沙河-广州大道中1275号,30057,2.5,0.16,1,0.5,False,False,True,23.15563069345595,113.317463483184
金达苑,天河-天河北-天润路,42089,2.1,0.35,1,0.8,False,False,True,23.13035783510465,113.36850942427998
华苑大厦,天河-天河北-天河直街1-87号,47700,1.56,0.32,1,1.95,False,False,True,23.13035783510465,113.36850942427998
华景锦苑,天河-天河公园-华景东路,86500,2.96,0.31,1,2.4,False,True,False,23.134102943315984,113.37180072583689
红英小区,天河-粤垦-燕岭路30号,27274,1.5,0.3,1,0.8,False,False,True,23.164589783099245,113.33389402993937
豪名阁,天河-珠江新城西-花城大道6号,48600,2.5,0.3,1,0.8,True,False,False,23.13035783510465,113.36850942427998
建丰大厦,天河-体育西路-天河南二路8号,51901,2.5,0.2,1,1.9,False,False,True,23.136989801523267,113.33665497192338
华景新城二期,天河-天河公园-粤生街62-100号,46000,3.2,0.3,1,1.5,False,False,True,23.143369379817756,113.36816627157528
时代新世界中心,天河-天平架-广园东路2193号,26446,3.6,0.31,1,2.5,True,False,False,23.13035783510465,113.36850942427998
怡侨大厦,天河-天河北-天河北路410号,61000,3.0,0.35,1,1.98,False,False,True,23.13035783510465,113.36850942427998
省政府机关宿舍,天河-天河北-天河北路595号,51000,1.5,0.3,1,1.1,False,False,True,23.147922852885632,113.34500023010831
润德大厦,天河-珠江新城西-华穗路28号,74600,1.5,0.3,1,1.8,True,False,False,23.122525052525067,113.32466232387749
润华大厦,天河-天河北-天润路37-39号,47215,3.0,0.3,1,1.8,False,False,True,23.149258600572345,113.34169284888277
侨林苑(一期),天河-林和-侨林街,68635,2.0,0.4,1,2.3,True,False,False,40.82838390336552,116.4898502468795
聚侨苑,天河-体育西路-广利路49-65号,44600,2.4,0.2,0,0.5,False,False,True,23.13615300378366,113.32536102590291
君华上域,天河-沙河-先烈东路198号,42000,2.5,0.3,1,2.5,False,True,False,23.15590789654661,113.31548550428224
龙苑大厦,天河-岗顶-天河路551-553号,39549,7.97,0.2,1,1.7,False,False,True,40.82838390336552,116.4898502468795
中城苑,天河-长兴-长兴路292-312号,43706,2.5,0.25,1,1.0,False,False,True,23.17326013662906,113.36147218874768
天隆花苑,天河-龙口西-龙口西路573-579号,41544,4.4,0.5,1,1.0,False,False,True,23.14522373583136,113.34478912831354
天盛大厦,天河-体育西路-体育东路35号,37697,2.5,0.3,1,1.4,False,False,True,23.13607025423649,113.33422191145041
远洋明珠,天河-珠江新城西-华利路15-23号,61175,9.46,0.3,1,1.5,False,False,True,23.13035783510465,113.36850942427998
御华苑,天河-天河北-龙口中路150号,57238,7.64,0.25,1,1.5,False,False,True,23.144891679990867,113.34515752340306
龙口小区,天河-龙口西-龙口西路,53606,2.7,0.32,1,0.6,False,False,True,23.13035783510465,113.36850942427998
公园一号,天河-天河公园-天府路11号之一,83000,5.0,0.3,1,2.5,False,True,False,23.132420333021564,113.36774433747739
东河苑小区,天河-天河北-广州大道中1166-1206号,46236,2.0,0.2,1,1.0,False,False,True,23.13035783510465,113.36850942427998
保利中宇广场,天河-天河北-天河北路626号,89436,2.4,0.33,1,2.5,False,True,False,23.14661010359134,113.34831264184471
天河北远洋小区,天河-林和-天河北路397-431号,56922,2.6,0.41,1,0.6,False,False,True,23.148657976840543,113.33581263084695
源泉广场,天河-天河客运站-天源路130-144号,24000,1.8,0.2,1,1.0,False,False,True,23.1800934384835,113.35382176987449
天河公安龙洞宿舍楼,天河-龙洞-龙洞东路230号,27450,2.0,0.32,1,1.0,False,False,True,23.203200693729585,113.37921578866657
穗茵园,天河-科韵路-建华路21-49号,42203,2.5,0.3,1,0.5,False,False,True,23.127386748142946,113.3789125207265
广东邮电职业技术学院宿舍,天河-天河公园-中山大道西,46000,1.6,0.2,1,0.5,False,False,True,23.134102943315984,113.37180072583689
汇景新城维纶特莱,天河-汇景新城-汇景南路,98900,2.5,0.4,0,0.9,False,True,False,23.154915711155226,113.37028717088364
恒康阁,天河-天河北-林和西路121号,45800,2.5,0.41,1,1.5,False,False,True,23.13035783510465,113.36850942427998
泰然楼,天河-员村-黄埔大道中165号-179号,36455,1.5,0.5,1,0.5,False,False,True,40.82838390336552,116.4898502468795
华建大厦,天河-天河公园-天府路233号,71500,1.5,0.3,0,0.9,True,False,False,23.13771651187533,113.36749353057908
兴禺大厦,天河-沙河-禺东西路50号,27802,2.5,0.4,0,0.9,True,False,False,23.13035783510465,113.36850942427998
老干中心大院,天河-长兴-长兴路291-293号,29800,1.5,0.2,1,1.0,False,False,True,23.173564130671316,113.36471408350158
嘉逸花园,天河-东莞庄-伟逸街,32400,3.49,0.42,1,0.55,False,True,False,23.16757947252872,113.35099956345472
东圃法院宿舍,天河-东圃-宦溪西路63-65号,42800,2.6,0.35,0,0.7,False,False,True,23.121678857327563,113.41069825271161
广园东住宅小区,天河-沙河-登峰街,22200,1.2,0.3,0,1.4,False,True,False,23.13035783510465,113.36850942427998
五华大厦,天河-科韵路-科韵路62号,36000,4.0,0.2,1,0.5,False,False,True,23.12726942876498,113.38048195028246
伟诚广场,天河-天河公园-黄埔大道中205号,43144,6.5,0.1,1,1.45,True,False,False,23.12908994461827,113.37152602401203
小城之春(天河),天河-天河公园-粤生街48号,92000,3.5,0.35,1,0.9,False,True,False,23.142205045983324,113.36622943506586
侨明苑,天河-粤垦-燕都路24-30号,26412,1.5,0.18,1,0.6,False,False,True,23.164801014727654,113.33637991077632
龙口东煤气公司宿舍,天河-天河北-龙口东路201号,53182,1.2,0.46,0,0.8,False,False,True,23.145751766872902,113.34654567490716
翠雅苑,天河-沙河-禺东西路34-36号,42837,2.5,0.35,1,1.0,False,False,True,23.13035783510465,113.36850942427998
粤和居,天河-天河公园-华翠街,47000,2.5,0.1,1,0.9,True,False,False,23.129508864952115,113.37179928854808
云山翠苑,天河-沙太南-广州大道北522号,32600,2.7,0.3,1,1.5,True,False,False,23.13035783510465,113.36850942427998
乐雅苑,天河-员村-黄埔大道中280号,38800,2.62,0.2,1,0.89,False,False,True,40.82838390336552,116.4898502468795
嘉华楼,天河-东圃-宦溪西路8-12号,27200,2.6,0.1,1,0.4,False,False,True,23.119253992944277,113.40871901618213
东洲大厦,天河-体育西路-广利路77号,51726,2.5,0.3,1,1.5,False,False,True,23.13642393341558,113.32717820811844
天河直街小区,天河-体育西路-天河直街91号,42400,2.5,0.3,1,0.7,False,False,True,23.142201972095233,113.32458506960364
御晖苑,天河-天河北-合晖街200号,49330,6.75,0.2,1,1.5,False,False,True,23.13035783510465,113.36850942427998
侨林苑(二期),天河-林和-侨林街,71873,2.0,0.4,1,2.1,True,False,False,40.82838390336552,116.4898502468795
凯利广场,天河-黄埔大道西-黄埔大道西874号,43600,2.5,0.3,1,1.2,False,True,False,23.13035783510465,113.36850942427998
康湖山庄,天河-员村-康湖大街65号,35579,2.0,0.15,1,0.5,False,False,True,40.82838390336552,116.4898502468795
龙口中路小区,天河-龙口东-龙口中路,49594,2.6,0.32,1,1.0,False,False,True,23.13035783510465,113.36850942427998
金晖花苑,天河-粤垦-侨源大街12号,35931,2.1,0.41,1,0.6,False,False,True,23.160517340875302,113.3379841047555
龙口西广梅汕宿舍,天河-天河北-龙口西路49号,52701,2.5,0.32,1,1.2,False,False,True,23.13035783510465,113.36850942427998
华景新城第三期西二区,天河-天河公园-华景路53-73号(单号),47600,3.2,0.3,1,0.6,False,False,True,23.143933390581864,113.36506532095586
华景新城四期,天河-天河公园-华景路17-37号,41284,1.67,0.3,1,1.9,False,False,True,23.141846646766986,113.3640535594603
保利108公馆,天河-珠江新城西-华就路6号,154861,3.44,0.35,1,2.1,False,True,False,23.12490341043514,113.33991222770148
青松园,天河-天河北-广州大道中542号,37800,1.0,0.23,1,0.5,False,False,True,23.13035783510465,113.36850942427998
军队离退休干部第三休养所,天河-沙河-水荫四横路102-104号,29645,1.2,0.3,1,0.8,False,False,True,23.13035783510465,113.36850942427998
电视台小区(天河),天河-天河北-天河东路170-174号,44808,3.1,0.25,1,1.3,False,False,True,23.1401959541381,113.34147267420235
安骏大厦,天河-珠江新城东-马场路529号,81405,6.0,0.25,1,1.8,False,False,True,23.128671106047662,113.3495046034255
寺右公馆,天河-珠江新城西-华就路21号,67000,2.5,0.3,0,0.9,False,True,False,23.12490341043514,113.33991222770148
龙口横街17-27号小区,天河-龙口东-龙口横街17-27号,43000,1.5,0.3,0,1.0,False,True,False,23.14522373583136,113.34478912831354
五山路电力宿舍,天河-华师-五山路166-194号,45800,2.5,0.2,1,1.0,False,False,True,23.147664989476603,113.35305398815537
泰然居,天河-天河公园-黄埔大道中179号,37482,1.5,0.2,1,0.5,False,False,True,23.12908994461827,113.37152602401203
棠雅苑,天河-天河公园-中山大道枫叶路10号,35400,1.5,0.28,1,0.9,True,False,False,23.14055984103784,113.37379433525454
祥兴大厦,天河-天河北-合晖街192-198号,43478,3.0,0.35,1,1.5,False,False,True,23.13035783510465,113.36850942427998
农机所研究小区,天河-龙怡路-龙口东310号,48859,2.9,0.35,1,0.9,False,False,True,23.150839482386555,113.34764277542614
龙眼洞林场宿舍,天河-龙洞-龙林街1-12号,37142,3.0,0.15,0,1.0,False,True,False,23.20939780674224,113.37397417601757
锦明街小区,天河-员村-锦明街12-95号,40694,3.0,0.3,1,1.0,False,False,True,40.82838390336552,116.4898502468795
广厦居小区,天河-员村-黄埔大道中239号,42000,2.5,0.32,1,1.15,False,False,True,40.82838390336552,116.4898502468795
华南理工大学南新村小区,天河-五山-五山路381号,59302,2.5,0.36,1,1.5,True,False,False,23.13035783510465,113.36850942427998
华景新城第五期北区,天河-天河公园-华景路,55500,1.67,0.3,1,0.6,False,False,True,23.134102943315984,113.37180072583689
高胜花园,天河-粤垦-东燕街122号,27430,3.2,0.3,1,0.6,False,False,True,23.13035783510465,113.36850942427998
华景新城怡景园,天河-天河公园-华景路162号,57500,3.67,0.35,1,0.8,False,False,True,23.14575741602937,113.3678434205751
宏景台,天河-天河北-信诚南街21号,81522,4.75,0.2,1,2.5,False,True,False,23.13035783510465,113.36850942427998
福颖苑,天河-员村-康湖大街,49609,1.8,0.4,1,1.1,True,False,False,40.82838390336552,116.4898502468795
枫丹雅筑,天河-天河北-龙口西路209号,57353,2.0,0.15,1,1.45,True,False,False,23.144135599777815,113.34185391506065
东莞庄工商局宿舍,天河-东莞庄-东莞庄一横路,48600,1.5,0.3,1,1.0,False,False,True,23.16757947252872,113.35099956345472
电信科研所宿舍,天河-天河公园-中山大道西111号,53922,2.1,0.33,0,0.9,True,False,False,23.142552727189877,113.36543371604537
翠华苑,天河-五山-岳洲路,53500,1.5,0.3,1,0.8,False,False,True,23.13035783510465,113.36850942427998
沙河西街小区,天河-沙河-先烈东路,18600,2.0,0.15,1,0.9,False,False,True,23.13035783510465,113.36850942427998
福泉楼,天河-沙河-先烈东路298-2号,26400,3.8,0.15,1,1.5,False,False,True,23.15590789654661,113.31548550428224
岳洲社区,天河-五山-岳洲路9号,40201,1.5,0.3,0,0.9,False,True,False,23.13035783510465,113.36850942427998
马蹄岗教师楼,天河-燕塘-燕塘路,26600,1.9,0.31,1,0.5,False,False,True,23.167974266300003,113.33426979113408
五山东城花苑,天河-华师-五山路,40200,2.6,0.3,0,0.42,False,False,True,23.141840415895825,113.35643628806042
天顺跃居,天河-员村-黄埔大道中131-135号,48500,2.5,0.37,1,1.35,False,True,False,40.82838390336552,116.4898502468795
天河路小区,天河-体育西路-天河路,59424,1.2,0.3,1,1.0,False,False,True,23.1389613897695,113.33591270208072
石鼓岭公安宿舍,天河-天平架-石鼓岭24号,22400,1.0,0.1,0,1.2,False,False,True,23.168452120514118,113.32579508712519
四航局大院(天河),天河-沙河-先烈东路159号,29554,1.1,0.2,1,1.5,False,False,True,23.15590789654661,113.31548550428224
省政府宿舍,天河-体育中心-广州大道中980号,50634,2.5,0.3,1,1.1,False,False,True,23.143232385236846,113.33157505426612
侨翠苑,天河-沙河-先烈东二横路10号,28665,2.1,0.32,1,1.0,False,False,True,23.13035783510465,113.36850942427998
侨兴苑(天河),天河-岗顶-黄埔大道西433号,40000,0.79,0.13,1,0.6,False,False,True,23.131928806055765,113.3462240815347
先烈东横路40号大院,天河-沙河-先烈东横路40-45号,30167,2.3,0.26,1,0.8,False,False,True,23.13035783510465,113.36850942427998
林和东商住小区,天河-天河北-沾溢直街170-190号,53521,2.8,0.22,1,0.8,False,False,True,23.153945282855364,113.33527032381075
龙吟居,天河-龙洞-天源路1041号,25800,1.1,0.3,1,0.5,False,True,False,23.19100499291849,113.36706979987017
国土资源厅宿舍,天河-员村-翠华街27号,48200,2.7,0.24,0,0.6,False,False,True,40.82838390336552,116.4898502468795
海景中心,天河-天河公园-黄埔大道中144号,40708,4.68,0.15,1,1.0,False,False,True,23.12908994461827,113.37152602401203
广本宿舍,天河-岗顶-石牌东路237-245号,41690,1.5,0.1,1,0.6,False,False,True,23.133399725809845,113.34991252395746
岗顶劳动局宿舍,天河-岗顶-石牌东路117号,34800,2.0,0.2,0,0.9,False,False,True,23.137292964929102,113.34954844073438
河源大厦,天河-林和-林和西横路194号,45800,3.0,0.25,0,0.9,True,False,False,23.151408445691633,113.32544151407659
金园大厦,天河-沙河-广园东路1850-1852号,26512,2.0,0.2,1,1.0,False,False,True,23.160922455929796,113.31254759611281
天麟府臻林,天河-天河公园-金兴一街46-48号,101693,4.4,0.39,1,1.6,False,True,False,23.131781995670515,113.36621955370525
广州体育学院山顶教工宿舍,天河-体育中心-水荫横路19-41号,35000,1.5,0.2,1,1.0,False,False,True,23.143232385236846,113.33157505426612
长福路小区,天河-天河客运站-长福路104-215号,34000,2.6,0.2,0,0.9,False,False,True,23.17108290424378,113.35295310844663
暨南大学南湖苑,天河-岗顶-黄埔大道西601号,54996,1.5,0.2,0,0.9,False,False,True,23.131928806055765,113.34471492827844
沙和路江屋竹园,天河-天平架-沙河路20号,25000,2.1,0.12,0,0.9,False,False,True,23.13035783510465,113.36850942427998
东莞庄花苑,天河-东莞庄-东莞庄路2号,39600,1.5,0.3,0,0.9,False,False,True,23.15497867826547,113.34096908413362
中铁盛德国际,天河-岗顶-黄埔大道西367号,51968,3.8,0.3,1,1.95,False,True,False,23.131928806055765,113.3468169631711
五山税务局宿舍,天河-五山-茶山路235号,59500,2.5,0.2,1,0.3,False,False,True,23.13035783510465,113.36850942427998
五羊宿舍,天河-科韵路-建华路109-121号,40000,2.0,0.2,1,1.2,False,False,True,23.128046626166874,113.37868336299098
沾益直街小区,天河-天河北-沾益直街87-113号,58000,2.0,0.25,1,2.3,False,False,True,23.151999503684316,113.33649606167872
员村四横路1号大院,天河-科韵路-员村四横路1号,38600,1.2,0.2,1,0.5,False,False,True,23.13035783510465,113.36850942427998
天寿路小区,天河-龙口东-天寿路100-124号,48010,2.5,0.35,1,0.9,False,False,True,23.151382028702212,113.33878647123674
禺东西路40号大院,天河-沙河-禺东西路40号,27800,1.2,0.3,1,0.8,False,False,True,23.13035783510465,113.36850942427998
永福北约,天河-沙河-先烈东路,23000,3.0,0.3,1,0.4,False,False,True,23.13035783510465,113.36850942427998
天河花园大厦,天河-石牌-南二路30-32号,46307,4.3,0.3,1,1.5,False,False,True,23.13035783510465,113.36850942427998
天河铁路宿舍,天河-岑村-江园街,22800,1.2,0.3,0,1.0,False,False,True,23.162284902674692,113.32071103726258
棠利大厦,天河-车陂-中山大道西491号,29200,3.0,0.3,1,0.6,False,False,True,23.131891833450005,113.40045622244298
石牌东公安宿舍,天河-岗顶-石牌东路79号,36071,1.2,0.3,1,0.5,False,False,True,23.13938908537603,113.34982610696743
司法局宿舍(天河),天河-天河北-龙口东路200-206号,61083,1.5,0.15,1,1.4,False,False,True,23.144949916514424,113.34755195673912
石牌东法院宿舍,天河-岗顶-石牌东路157号,34807,2.0,0.28,1,0.6,False,True,False,23.135714663225038,113.3503807207891
水务局三防办,天河-五山-瘦狗岭路,29000,1.5,0.3,1,0.9,False,False,True,23.13035783510465,113.36850942427998
一汽宿舍,天河-东圃-圃兴路69号,26600,2.0,0.2,1,0.5,True,False,False,23.133092316229412,113.41229759584104
瑞达大厦,天河-体育中心-黄埔大道西39号,43000,2.0,0.18,1,1.5,False,False,True,23.143232385236846,113.33157505426612
省机械研究所宿舍,天河-龙口东-龙口东路,45800,1.0,0.2,1,0.7,False,False,True,23.14522373583136,113.34478912831354
善庆邨,天河-棠下-涌东路3-7号,16906,2.5,0.34,0,0.8,False,True,False,23.133309580101326,113.38495335578745
沙河顶新二街小区,天河-沙河-沙河顶新二街,25600,3.6,0.25,0,0.5,False,False,True,23.13035783510465,113.36850942427998
新概念电脑城,天河-岗顶-天河路552-558号,28800,3.0,0.3,1,0.9,True,False,False,40.82838390336552,116.4898502468795
润寿小区,天河-天河北-天寿路22-26号,43600,2.0,0.12,0,0.7,False,False,True,23.149577519867623,113.33988959040263
侨苑小区(天河),天河-天河北-天河北街4-30号,56000,1.3,0.3,1,0.5,False,False,True,23.13035783510465,113.36850942427998
先烈东二横路11号大院,天河-沙河-先烈东二横路11号,28270,1.2,0.32,0,1.2,False,False,True,23.13035783510465,113.36850942427998
农科院(西区),天河-五山-金颖路,56756,1.32,0.25,1,1.0,False,False,True,23.151399972318238,113.35973872860565
绿洲阁,天河-燕塘-燕塘路11号,25200,1.5,0.28,0,0.4,False,False,True,23.16735179900224,113.33432333014244
绿怡居花园,天河-林和-水荫直街6巷53号,32400,2.7,0.3,1,0.75,False,False,True,23.129572591907962,113.42695048582331
绿茵居,天河-天河公园-华景路53-55号,40200,3.2,0.46,1,1.2,False,True,False,23.143933390581864,113.36506532095586
绿韵阁,天河-燕塘-燕塘路35号,26600,1.5,0.19,1,0.6,False,False,True,23.16789078907013,113.3341094436006
金庭轩,天河-东圃-东圃大马路50号,36000,2.4,0.33,1,0.4,False,False,True,23.12151566666668,113.40645411850056
佳福阁,天河-科韵路-建华路17号,37000,2.1,0.25,1,0.8,False,False,True,23.127263695733223,113.37958616002821
金骏大厦,天河-珠江新城东-海安路,79500,4.6,0.35,1,2.45,False,False,True,23.12490341043514,113.33991222770148
海棠阁(天河),天河-天河北-林和东路122-124号,57500,1.1,0.25,0,1.4,False,False,True,23.13035783510465,113.36850942427998
广运楼,天河-天河公园-中山大道西138号,18100,1.2,0.3,0,0.5,False,False,True,23.139989003403137,113.36408023913394
广利路小区,天河-体育西路-广利路19号,45200,2.1,0.1,0,0.8,False,False,True,23.135715494046266,113.32342499786844
广信银兰苑,天河-岗顶-石牌东路137号,47903,2.0,0.3,1,0.6,False,False,True,23.136830949935973,113.3494751390048
华南理工大学东住宅小区(东一区集),天河-五山-五山路381号,63000,1.2,0.3,0,1.2,True,False,False,23.13035783510465,113.36850942427998
华南理工大学东住宅小区(辽河路),天河-五山-五山路450号,68500,1.2,0.3,1,0.8,False,False,True,23.13035783510465,113.36850942427998
广东省科技干部学院宿舍,天河-五山-科华街351号,42600,2.0,0.35,1,1.7,False,True,False,23.150177890211665,113.36973174858701
广东省农科院东住宅A区,天河-五山-金颖东一街2号,54828,2.1,0.25,1,1.0,False,True,False,23.151492016384466,113.36336680489815
工艺大院,天河-体育西路-天河直街103号,42000,1.25,0.23,1,1.0,False,False,True,23.142021775666013,113.32374290818831
华景新城福门阁,天河-天河公园-华景路120-126号,46800,1.5,0.43,1,0.8,False,False,True,23.1460368828223,113.36633660291315
鸿景楼,天河-天河公园-粤生街80-86号,46336,1.5,0.43,1,0.6,False,False,True,23.143205966617327,113.36745553225602
红十字会医院宿舍,天河-东圃-东圃大马路,28800,5.0,0.1,1,0.5,False,False,True,23.12432511045114,113.41569687372022
东圃供销社宿舍,天河-东圃-东圃大马路23号,21400,2.0,0.2,1,0.8,False,False,True,23.122281182015772,113.40734146468301
东圃边检宿舍,天河-东圃-宦溪西路19号,42000,2.0,0.35,0,1.0,False,True,False,23.12117599014633,113.41029877625145
电子技术研究所宿舍,天河-粤垦-粤垦路174-178号,30800,1.5,0.3,1,0.8,True,False,False,23.16090600879774,113.34055397715758
华景新城翠景园(天河),天河-天河公园-华景路162号,50000,1.4,0.3,1,0.8,False,False,True,23.14575741602937,113.3678434205751
博雅御轩1号,天河-珠江新城中-兴盛路11号,97000,11.33,0.22,1,2.8,False,True,False,23.13035783510465,113.36850942427998
113中学教工宿舍,天河-天河北-五山路93-105号,51700,2.5,0.3,1,1.5,False,False,True,23.13035783510465,113.36850942427998
团校宿舍,天河-龙口东-五山路109号,50000,1.0,0.2,0,2.0,False,False,True,23.14522373583136,113.34478912831354
广州体育学院宿舍,天河-林和-广州大道中456号,56670,1.5,0.2,1,0.8,False,False,True,40.82838390336552,116.4898502468795
建华路小区(天河),天河-员村-建华路1-113号,40898,1.5,0.3,0,0.9,True,False,False,40.82838390336552,116.4898502468795
南方电网宿舍,天河-体育中心-天河路118-122号,46200,2.5,0.3,1,1.0,False,True,False,23.143232385236846,113.33157505426612
天河南街海运小区,天河-体育中心-六运三街,49600,1.5,0.3,0,1.2,False,True,False,23.143232385236846,113.33157505426612
广京艺苑,天河-体育中心-水荫四横路11号,23600,1.5,0.3,0,0.9,True,False,False,23.143232385236846,113.33157505426612
中科院华南植物研究所,天河-天河客运站-兴科路723号,33533,1.5,0.2,0,0.9,False,False,True,23.18348583041471,113.36522180577565
广东省贸易学校宿舍,天河-天平架-兴华直街338号,26000,1.5,0.3,0,0.9,False,False,True,23.13035783510465,113.36850942427998
商检宿舍,天河-龙口东-龙口西路207号,55000,2.0,0.3,0,1.5,True,False,False,23.14522373583136,113.34478912831354
广东省公路勘察规划设计院宿舍,天河-天平架-兴华直街5号,22600,1.5,0.2,0,0.9,False,False,True,23.13035783510465,113.36850942427998
伟伦体校宿舍,天河-长兴-长兴路332-336号,34200,2.8,0.3,0,0.58,False,False,True,23.1731351334118,113.36233644847856
天信大厦,天河-龙口东-天河东路216号,48200,2.5,0.3,0,0.9,False,True,False,23.14522373583136,113.34478912831354
轻工学院宿舍楼,天河-五山-长福路171号,31800,1.5,0.2,0,0.9,False,False,True,23.13035783510465,113.36850942427998
黄村东路小区,天河-东圃-黄村东路9号,19000,1.2,0.3,0,0.5,False,False,True,23.128232325321,113.4217167782628
龙口横街31-33号大院,天河-龙口东-龙口横街31号,43400,1.5,0.3,0,0.9,False,True,False,23.14522373583136,113.34478912831354
天工大厦,天河-龙怡路-瘦狗岭路569号,28400,1.4,0.25,0,0.9,True,False,False,23.151947500655417,113.35071489043871
中科院化学研究所大院,天河-长兴-兴科路368号,38488,1.0,0.3,0,0.5,False,False,True,23.179228425250795,113.36822915296095
新光宿舍,天河-东莞庄-东莞庄路136号,18700,1.5,0.35,1,0.5,False,False,True,23.164294905508154,113.34578570844597
华南农业大学六一区教工宿舍,天河-五山-玉泉南路,53673,1.2,0.3,1,0.2,False,False,True,23.158792036924776,113.3585924907753
华南理工大学红棉苑,天河-五山-五山路381号,63242,1.5,0.4,0,0.5,False,False,True,23.13035783510465,113.36850942427998
华南理工大学凤凰新村小区,天河-五山-五山路381号,65058,1.5,0.23,1,1.8,False,False,True,23.13035783510465,113.36850942427998
华南师范大学教工生活区,天河-天河公园-华景路,81197,2.0,0.2,1,1.0,False,False,True,23.134102943315984,113.37180072583689
华南理工大学东秀村小区,天河-五山-五山路381号,62000,2.3,0.42,1,1.2,False,False,True,23.13035783510465,113.36850942427998
民政局大院(天河),天河-沙河-水荫四横路48-67号,26691,1.2,0.3,1,0.85,False,False,True,23.13035783510465,113.36850942427998
中人宿舍,天河-天平架-五仙桥街,17241,1.9,0.3,1,0.8,False,False,True,23.13035783510465,113.36850942427998
金地天河峯睿,天河-棠东-健明五路,67049,3.3,0.35,1,2.5,False,True,False,23.135253141226016,113.39172469288887
广州远洋运输公司林和直街住宅小区,天河-体育西路-天河直街20-28号,46600,1.25,0.3,1,1.0,True,False,False,23.140743944166367,113.32475008832577
新一街小区,天河-沙河-沙河顶新一街,22770,1.5,0.25,1,0.6,False,False,True,23.13035783510465,113.36850942427998
花生寮小区,天河-沙河-花生寮大街47号,21000,2.0,0.2,1,1.0,False,False,True,23.13035783510465,113.36850942427998
天平架公交宿舍,天河-体育中心-兴华路7,23600,1.2,0.2,0,0.5,False,False,True,23.143232385236846,113.33157505426612
暨南大学华文学院,天河-体育中心-瘦狗岭路,36857,1.5,0.2,0,0.9,False,False,True,23.143232385236846,113.33157505426612
粮油宿舍,天河-沙太南-广州大道北536号,22187,1.5,0.2,0,0.9,False,False,True,23.13035783510465,113.36850942427998
国土局宿舍,"天河-天河公园-建中路,近建华路",36400,1.5,0.2,0,0.9,False,False,True,23.129508864952115,113.37179928854808
水利学院宿舍,天河-龙口东-天寿路122号,51500,1.5,0.2,1,1.0,False,False,True,23.151151669008346,113.3411611418516
元岗公安宿舍,天河-天河客运站-燕岭路600号,29213,2.2,0.2,1,1.5,True,False,False,23.175405439222317,113.34674959025787
农科院东区,天河-五山-广园路,50138,1.32,0.25,1,0.65,False,False,True,23.13035783510465,113.36850942427998
广信红棉阁,天河-体育中心-黄埔大道西189号,39200,0.8,0.2,0,2.6,False,False,True,23.143232385236846,113.33157505426612
土壤研究所大院,天河-长兴-天源路808号,34400,1.2,0.2,0,0.5,False,False,True,23.18720277750292,113.36234489255034
先烈东路131号大院,天河-沙河-先烈东路131号,30200,1.5,0.2,0,0.9,False,False,True,23.15590789654661,113.31548550428224
建设局宿舍(黄埔大道中),天河-员村-黄埔大道中168号,50500,1.5,0.2,0,0.9,False,False,True,40.82838390336552,116.4898502468795
永福正街小区,天河-体育中心-永福正街56号,12400,1.2,0.2,0,0.5,False,False,True,23.143232385236846,113.33157505426612
龙岗路公安大院,天河-体育中心-龙岗路72号,26400,1.5,0.3,0,1.0,False,True,False,23.143232385236846,113.33157505426612
广州体育学院教工宿舍,天河-体育西路-广州大道中1268号大院,52000,1.5,0.2,0,0.9,False,False,True,23.1362916673167,113.32804785768236
纵横花园,天河-东圃-黄村东路22-36号,28400,3.4,0.3,1,1.0,False,True,False,23.127108488344646,113.42246003624152
珠委小区,天河-天河北-沾益直街13-17号(单号),60500,2.0,0.35,1,0.6,False,False,True,23.152584245602373,113.33908767307415
珠江新城迎龙苑,天河-黄埔大道西-海业路2号,38000,1.2,0.3,1,2.8,False,True,False,23.131928806055765,113.35011374439162
中人小区,天河-长湴-中成路324号,21200,1.2,0.12,1,0.8,True,False,False,23.190504215932503,113.34926870839867
武警二支队家属区,天河-龙口东-龙口东路68号,20200,1.5,0.3,0,0.9,False,True,False,23.14522373583136,113.34478912831354
文苑花园(天河),天河-天河北-龙口西路554号,40000,2.8,0.28,1,0.6,False,False,True,23.151195863542508,113.34372283967356
长运小区,天河-沙河-先烈东二横路13-37号,25200,1.5,0.3,0,0.6,False,False,True,23.13035783510465,113.36850942427998
武术馆宿舍,天河-林和-沾益直街168号,55000,1.2,0.3,1,0.5,False,True,False,23.153763773263233,113.33648860574299
五山小区,天河-天河北-后天河北石牌街,47200,3.5,0.45,1,0.5,False,False,True,23.13035783510465,113.36850942427998
五山综合大楼,天河-五山-岳洲路55号,33200,2.0,0.25,1,0.8,False,False,True,23.13035783510465,113.36850942427998
振东花苑,天河-东圃-荔苑路146号,25200,2.5,0.1,0,0.6,True,False,False,23.130856097792375,113.4161763892013
五所社区,天河-五山-东莞庄路112号,22800,1.2,0.15,1,0.6,True,False,False,23.160299540143033,113.3446746841916
物资局宿舍,天河-沙河-先烈东横路42号,23286,1.2,0.1,1,0.7,True,False,False,23.13035783510465,113.36850942427998
长兴大厦,天河-长湴-长湴东路75号,38200,3.0,0.1,1,0.75,False,True,False,23.176074961862643,113.36094227832753
五山路大院,天河-华师-五山路,48300,3.5,0.32,1,1.0,False,False,True,23.141840415895825,113.35643628806042
伟城花苑,天河-员村-伟诚街13号,32800,2.5,0.3,1,0.8,False,False,True,40.82838390336552,116.4898502468795
伟腾嘉逸宽派,天河-东莞庄-伟逸街8号,33800,3.49,0.3,0,0.9,False,True,False,23.16765514211828,113.34658259526363
长大公路宿舍,天河-体育西路-广州大道中,25000,1.2,0.3,0,0.5,False,True,False,23.1362916673167,113.32804785768236
云龙苑,天河-沙河-江园街128号,23600,2.5,0.2,1,0.5,False,False,True,23.13035783510465,113.36850942427998
粤和花园,天河-天河公园-棠石路,19200,2.5,0.3,1,2.8,False,True,False,23.12908994461827,113.37152602401203
桐油岗小区,天河-沙河-桐油岗36号,22400,1.2,0.2,1,0.8,False,False,True,23.605930190438016,112.9134680971623
天隆花园,天河-天河北-车陂路71号,31200,1.5,0.18,1,1.5,False,False,True,23.13035783510465,113.36850942427998
天华苑,天河-华师-新华街20号,45000,0.8,0.2,1,0.6,False,False,True,23.141840415895825,113.35643628806042
天英阁,天河-体育西路-体育西路130号,62500,2.0,0.3,1,1.8,False,False,True,23.1362916673167,113.32804785768236
员村新街小区,天河-员村-员村新街,29400,2.3,0.35,0,0.6,False,False,True,40.82838390336552,116.4898502468795
同乐花苑,天河-天河公园-荷光路58-74号,21600,2.7,0.3,0,0.4,False,False,True,23.139725308983653,113.37998303140239
天顺阁,天河-天河北-天河东路226号,55000,2.1,0.3,1,1.95,False,False,True,23.13035783510465,113.36850942427998
天河药检所住宅小区,天河-棠下-荷光路104号,25200,1.5,0.3,0,0.9,False,False,True,23.140425252848875,113.38054716726245
天韵阁,天河-科韵路-黄埔大道中279-285号,32400,2.4,0.25,1,0.4,False,False,True,23.131928806055765,113.35011374439162
田新小区,天河-天河北-先烈东横路36号,25000,1.5,0.3,1,1.7,True,False,False,23.13035783510465,113.36850942427998
天河财政局宿舍,天河-科韵路-黄埔大道中工业园建华路,38600,1.5,0.2,1,1.2,False,False,True,23.131928806055765,113.35011374439162
体育村小区,天河-天河北-天河北街3号,51500,2.5,0.3,1,1.9,True,False,False,23.13035783510465,113.36850942427998
天兴阁,天河-天河北-天河北路450号,46200,2.5,0.25,0,2.0,False,False,True,23.13035783510465,113.36850942427998
天平架三汽宿舍,天河-天平架-天平架路,21200,2.0,0.2,1,0.5,False,False,True,23.13035783510465,113.36850942427998
天蕙阁,天河-天河北-体育西路131号之二,61500,2.0,0.2,1,1.2,False,False,True,23.13035783510465,113.36850942427998
天丰楼,天河-体育西路-天河路91号,42400,1.5,0.38,1,1.0,True,False,False,23.140150094348346,113.32464112386745
天河南二路小区,天河-体育西路-天河南二路,48100,2.4,0.3,0,0.68,False,False,True,23.137383689496755,113.3377008690283
天丰阁,天河-天河北-天河东路452号,50000,2.5,0.2,1,1.95,False,False,True,23.13035783510465,113.36850942427998
体育东横街小区,天河-体育西路-体育东横街,45800,2.6,0.3,1,0.8,False,False,True,23.134660762300364,113.33739607396886
禺东西路小区,天河-沙河-禺东西路54号,24400,1.5,0.2,1,0.6,False,False,True,23.13035783510465,113.36850942427998
天福居,天河-沙河-沙河西街32号,21400,1.1,0.35,0,1.5,False,False,True,23.13035783510465,113.36850942427998
园丁苑,天河-东圃-园丁路1号,32600,2.3,0.18,1,0.8,False,False,True,23.12895775428983,113.41964402812977
体育东铁路局宿舍,天河-体育中心-体育东路,48086,2.5,0.3,1,0.75,True,False,False,23.143232385236846,113.33157505426612
天河区党校宿舍,天河-天河北-龙口西路571号,51500,2.0,0.3,0,1.2,True,False,False,23.1516900604401,113.3430412054528
天府路小区,天河-天河公园-天府路125-137号,29800,3.0,0.3,1,1.0,True,False,False,23.13418785425116,113.36912664999568
永福正街大院,天河-沙河-永福正街58-66号(双号),19400,2.0,0.15,0,0.9,False,False,True,23.15091250321898,113.31311370824501
天河环卫之家,天河-天河北-棠兴街2-6号,19100,1.5,0.3,1,0.2,False,False,True,23.13035783510465,113.36850942427998
陶庄公安宿舍,天河-沙太南-石鼓岭24号,21400,3.0,0.3,1,0.5,False,False,True,26.96931305821596,112.62877486927036
棠丽苑,天河-中山大道-棠安路134号,19600,1.5,0.3,1,0.9,False,False,True,23.13567071277445,113.38303430572712
天河交警宿舍,天河-天河公园-黄埔大道中201号,25400,3.0,0.3,0,0.5,False,False,True,23.12908994461827,113.37152602401203
天河街小区,天河-体育西路-天河街,48200,2.0,0.28,1,0.8,False,False,True,23.13726413577235,113.32728250138813
天宝大厦,天河-天河北-体育东路37号,40600,2.5,0.2,1,0.8,False,False,True,23.13035783510465,113.36850942427998
天成居,天河-车陂-黄埔大道东8号,51000,2.8,0.15,1,1.2,False,False,True,23.13035783510465,113.36850942427998
天河路33号大院,天河-岑村-天河路33号,48200,1.5,0.13,0,0.8,False,False,True,40.82838390336552,116.4898502468795
颖康阁,天河-员村-康湖大街105号,37600,1.2,0.12,1,1.3,False,False,True,40.82838390336552,116.4898502468795
探矿厂宿舍,天河-天河北-广州大道北880号,28200,1.9,0.3,1,0.6,False,False,True,23.13035783510465,113.36850942427998
迎翠春庭小区,天河-棠下-棠德南路2-24号,29400,2.5,0.35,1,0.56,False,False,True,23.138451027802255,113.38529857459481
泰安花园,天河-棠东-泰安北路140号,30000,1.33,0.45,1,1.0,False,False,True,23.13656550452093,113.39824728919467
棠新小区,天河-天河公园-荷光路38号,51500,2.0,0.38,0,1.0,True,False,False,23.138343106307623,113.3790251682374
逸安阁,天河-车陂-中山大道231-239号,40000,4.1,0.2,1,1.0,False,False,True,23.131891833450005,113.40045622244298
棠安苑,天河-车陂-棠安路125号,18700,1.1,0.3,1,0.8,False,False,True,23.126222024676977,113.39947347621538
棠东商业大厦,天河-棠下-棠基街1-11号,28800,1.5,0.3,1,1.5,False,False,True,40.82838390336552,116.4898502468795
桃园新村,天河-棠下-棠下大片路,17700,1.2,0.3,0,0.5,False,False,True,23.13035783510465,113.36850942427998
穗苑新村,天河-天河公园-荷光路122-126号,21400,2.0,0.2,1,1.3,False,False,True,23.140772024855732,113.3797065329665
颐和四季公馆,天河-东莞庄-瘦狗岭路413号,47800,8.48,0.3,1,2.8,False,True,False,23.154684942255205,113.34181124554894
水利大院,天河-天河北-天寿路116号,41200,2.0,0.3,1,0.8,False,False,True,23.152353057282106,113.34025349396461
石牌南门苑,天河-五山-瘦狗岭路555号,48200,2.5,0.3,1,0.9,False,False,True,23.150946064543703,113.35086814135866
诗书楼,天河-东圃-桃园西路,18100,1.2,0.2,0,0.5,False,False,True,23.12432511045114,113.41569687372022
一处春大厦,天河-沙河-先烈东路316号,34400,2.5,0.35,1,0.6,False,False,True,23.15590789654661,113.31548550428224
水利科学院小区,天河-天河北-天寿路164-172号,48300,2.2,0.36,1,2.5,False,False,True,23.153248899391755,113.34008766676753
石牌邮局宿舍,天河-岗顶-中山大道西24号,48713,1.2,0.18,1,2.0,False,False,True,40.82838390336552,116.4898502468795
怡安苑,天河-中山大道-荷光路,16600,1.2,0.3,1,0.5,False,False,True,23.139448321274898,113.37956460069597
怡景新村,天河-员村-怡景大街90号,32600,1.5,0.2,1,0.5,False,True,False,40.82838390336552,116.4898502468795
怡东苑,天河-东圃-中山大道中290号,18100,1.5,0.1,1,0.6,False,False,True,23.126563682385086,113.40897413494686
燕都路小区,天河-粤垦-燕都路22号,25800,1.65,0.22,1,0.5,False,False,True,23.164919048455815,113.33634496669198
顺景台,天河-天河公园-华翠街98号,48200,2.5,0.25,1,1.2,False,False,True,23.130842305653786,113.37285353989425
腰光西小区,天河-员村-锦明街,25400,2.45,0.3,0,0.8,False,False,True,40.82838390336552,116.4898502468795
社会福利院宿舍,天河-龙洞-龙湖路233号,32400,1.2,0.3,0,1.0,False,True,False,23.207153244819605,113.36672925225145
新悦楼(天河),天河-车陂-中横路二巷11号,19100,1.5,0.2,1,1.2,False,True,False,23.13035783510465,113.36850942427998
新闻出版社大院,天河-五山-长福路185-192号,38200,1.5,0.3,1,0.9,False,False,True,23.13035783510465,113.36850942427998
省建材机械厂宿舍区,天河-岑村-苏庄大街100号,24000,3.0,0.3,1,0.5,False,False,True,40.82838390336552,116.4898502468795
馨晖园,天河-东莞庄-东莞庄一横路120-132号,55500,2.5,0.34,1,1.0,False,False,True,23.156414536237076,113.34428284332829
上江屋村,天河-天河北-沙和路,19400,1.2,0.35,1,1.2,False,False,True,23.13035783510465,113.36850942427998
星河苑(天河),天河-沙河-先烈东横路60号,23600,1.1,0.35,1,0.4,False,True,False,23.13035783510465,113.36850942427998
三宝墟教职工新村,天河-长兴-天源路,17200,2.0,0.4,1,0.69,False,False,True,23.175287747074524,113.36102204785679
沙东大街小区,天河-沙河-沙东大街,17200,2.26,0.3,0,1.5,False,False,True,23.13035783510465,113.36850942427998
瑞景楼,天河-天河公园-粤生街92-100号,48000,1.5,0.2,1,1.2,False,False,True,23.143509697346605,113.36840953270729
生物药厂宿舍,天河-天河公园-中山大道西105号,39800,2.7,0.15,1,0.7,False,False,True,23.14367867634046,113.36533553125318
省消防总队宿舍,天河-五山-瘦狗岭路491号,38400,1.5,0.3,1,0.5,True,False,False,23.151897491333607,113.34928218298131
尚河居,天河-体育西路-广利路85号,54000,2.4,0.4,1,1.9,False,True,False,23.136694280923248,113.32587629394325
沙河顶小区,天河-沙河-水萌一横路61号,24400,3.0,0.35,1,0.5,False,False,True,23.13035783510465,113.36850942427998
沙河机施大院,天河-沙河-先烈东横路11号,27000,1.8,0.15,1,0.2,False,False,True,23.13035783510465,113.36850942427998
鑫源楼,天河-沙河-先烈东路,20200,3.0,0.2,1,0.8,False,False,True,23.13035783510465,113.36850942427998
祥龙苑,天河-棠下-棠德南路,19100,0.5,0.36,1,0.8,False,False,True,23.13035783510465,113.36850942427998
祥德楼,天河-天河公园-北社大街10号,27000,2.3,0.21,1,0.4,False,False,True,23.13035783510465,113.36850942427998
先烈东路143号大院,天河-沙河-先烈东路143号,25800,2.5,0.2,1,1.1,False,False,True,23.156587236879012,113.31567055521722
龙岗路18号大院,天河-沙河-龙岗路18号,24600,1.2,0.2,1,0.4,False,False,True,40.03654250088151,116.36381726518519
先烈东路小区,天河-沙河-先烈东路,22800,2.65,0.32,1,0.9,False,False,True,23.13035783510465,113.36850942427998
先烈东路254号大院,天河-沙河-先烈东路254号,20800,1.2,0.2,1,0.5,False,False,True,23.156115320835188,113.31607883507137
冼村街杨箕东社区,天河-体育西路-黄埔大道西30号,46800,2.5,0.12,1,0.9,False,False,True,23.131928806055765,113.34984425273872
象牙厂宿舍,天河-五山-陶庄路5号,21400,3.0,0.2,1,0.6,False,False,True,23.168432351853216,113.32716886574114
先烈东横路28号大院,天河-沙河-先烈东横路28号,25200,1.2,0.2,0,1.0,False,False,True,23.13035783510465,113.36850942427998
农科院蚕业与农产品加工研究所宿舍,天河-五山-东莞庄一横路133号,34400,1.2,0.2,1,0.7,False,False,True,23.15809908473575,113.34513497593477
先烈东横路7号大院,天河-沙河-先烈东横路7号,23000,1.2,0.22,1,0.5,False,False,True,23.15541379845455,113.31299818615646
林机场宿舍,天河-龙洞-天源路,20800,1.2,0.4,0,0.5,False,False,True,23.203200693729585,113.37921578866657
千禧花园,天河-天河客运站-中元路,29600,1.6,0.41,1,1.0,True,False,False,23.176560344970806,113.34906110999539
南铁华庭,天河-五山-汇苑街1-13号,17500,2.5,0.2,1,1.6,False,True,False,23.13035783510465,113.36850942427998
能源路小区,天河-五山-能源路,42400,1.5,0.15,1,0.9,True,False,False,23.158792036924776,113.3585924907753
农林小区,天河-燕塘-银锭塘后街102号,26000,3.0,0.12,1,0.6,False,False,True,23.164644023891665,113.34083128406843
农业机械研究所宿舍,天河-五山-五山路261号,50216,1.5,0.2,1,0.5,False,False,True,23.148501049942492,113.35229105728598
濂泉广场,天河-五山-天源路,16300,1.5,0.2,0,0.9,False,False,True,23.157630579882714,113.35691176116669
农业干部学院宿舍,天河-五山-科华街273号,20000,2.0,0.26,1,1.8,False,False,True,23.150547066363092,113.36875663795624
荔景花园,天河-东圃-福元路,19600,4.09,0.35,1,1.0,True,False,False,23.12432511045114,113.41569687372022
荔苑邨,天河-东圃-荔苑路61号,18300,1.2,0.35,1,0.8,False,False,True,23.13387280283667,113.41495999371064
林和东公安住宅区,天河-天河北-林和东路155-171号,59000,2.6,0.3,1,2.0,False,False,True,23.13035783510465,113.36850942427998
丽晴轩,天河-东莞庄-东莞庄路21号,57500,4.23,0.42,1,1.8,True,False,False,23.15750240530528,113.34239074243324
丽都花园,天河-东圃-中山大道,25200,2.5,0.2,1,0.5,False,False,True,23.126563682385086,113.40897413494686
理邦楼,天河-天河公园-华翠街,23000,1.2,0.3,1,1.0,False,False,True,23.129508864952115,113.37179928854808
南骏大厦,天河-龙怡路-天阳路155号,55000,8.0,0.35,1,0.9,False,False,True,23.150248086926318,113.34647327148309
乐融阁,天河-东圃-官育路18号,20600,1.8,0.29,1,0.23,False,False,True,23.133251006128845,113.39092097894935
南国嘉居,天河-车陂-瑞华路32号,42600,1.2,0.3,1,0.8,True,False,False,23.126222024676977,113.39947347621538
浪奇宿舍,天河-车陂-启明大街90号,39900,3.0,0.1,1,0.6,False,False,True,23.130283307408106,113.40152924837429
南海厂宿舍,天河-五山-东莞庄路248-254号,43200,1.2,0.26,1,0.8,False,False,True,23.166785146883438,113.34970896792896
康乐新村(天河),天河-东圃-东圃大马路,19400,2.3,0.32,1,0.8,True,False,False,23.12432511045114,113.41569687372022
马蹄岗村,天河-天河北-兴华村路129号,16800,1.2,0.16,1,0.4,False,False,True,23.13035783510465,113.36850942427998
名圃花园,天河-东圃-祥圃街5号,18300,1.3,0.3,1,0.8,False,True,False,23.12517353216439,113.41217416866401
梅园小区,天河-棠下-涌东路,29800,1.2,0.3,0,0.6,False,False,True,23.128512244494164,113.38478842689587
绿景阁,天河-天平架-燕兴路14号,25000,2.3,0.2,0,0.4,False,True,False,23.13035783510465,113.36850942427998
军体院小区,天河-天河北-禺东西路10号,29000,2.0,0.35,0,1.0,True,False,False,23.13035783510465,113.36850942427998
军体院远洋小区,天河-沙河-花生寮29号,18900,1.2,0.3,0,0.5,False,True,False,23.15561391338809,113.32268703989224
美林海岸花园水晶轩,天河-员村-百合路,63000,2.44,0.33,1,1.2,True,False,False,40.82838390336552,116.4898502468795
绿庭苑,天河-天河北-天河北路96号,73500,3.0,0.2,1,2.5,False,False,True,23.13035783510465,113.36850942427998
君华翠轩,天河-沙河-先烈东路198号,39200,2.5,0.3,1,2.5,False,True,False,23.15590789654661,113.31548550428224
龙庭阁,天河-珠江新城西-花城大道5号,63500,1.9,0.39,1,2.1,False,True,False,23.13035783510465,113.36850942427998
景安花园,天河-东圃-珠吉路5号,18100,3.0,0.4,1,1.0,False,True,False,23.12275438179431,113.43255285796498
金棠苑,天河-东圃-棠下涌东路204号,25200,6.0,0.1,1,0.5,False,False,True,23.13035783510465,113.36850942427998
景晖苑(天河),天河-天河客运站-元岗路180号,17900,1.5,0.3,0,0.6,False,False,True,23.18230706588882,113.34330153438951
龙口东花园小区,天河-龙怡路-龙口东路428号,43800,2.3,0.32,0,1.2,False,False,True,23.150203725929902,113.34763558898206
龙愉园,天河-棠东-龙门路,19100,1.5,0.3,0,0.9,False,True,False,23.135253141226016,113.39172469288887
金田广场,天河-龙口东-天河北路,34400,1.2,0.2,1,0.8,False,True,False,23.13035783510465,113.36850942427998
金沙花园(天河),天河-东圃-桃园西路3号,25800,2.9,0.4,1,1.5,False,False,True,23.13035783510465,113.36850942427998
龙口东路小区,天河-天河北-龙口东路149号,46200,3.2,0.3,0,0.8,False,False,True,23.143816584307547,113.34758959573998
龙泽大厦,天河-龙口东-龙口东151号,41800,2.5,0.3,0,1.5,False,True,False,23.150839482386555,113.34764277542614
交通局宿舍(天河),天河-天河公园-荷光路,25400,1.8,0.3,0,0.5,False,False,True,23.134102943315984,113.37180072583689
龙口东社区,天河-龙口东-龙口东路,36600,1.2,0.34,0,0.5,False,False,True,23.14522373583136,113.34478912831354
吉祥花苑,天河-天河公园-荷光路108-114号,25400,1.5,0.2,0,0.9,False,False,True,23.140503098009404,113.37982483980213
佳和新居(桃园西路),天河-东圃-桃园西路,19800,1.8,0.3,1,1.8,False,True,False,23.12432511045114,113.41569687372022
建宇轩,天河-天河公园-华景路8-12号,56000,1.8,0.29,1,0.3,False,False,True,23.14192690036139,113.36497486159104
海角楼,天河-天河北-天河路93号,48300,3.0,0.3,1,1.2,False,False,True,23.13035783510465,113.36850942427998
海棠花园(天河),天河-棠下-棠下涌东路自编300号,22400,2.0,0.28,1,0.7,False,False,True,23.140258097451074,113.373387133367
建材小区,天河-沙太南-苏庄大街100号,22200,3.0,0.15,1,0.8,False,False,True,23.13035783510465,113.36850942427998
暨南大学教工宿舍,天河-天河公园-华景路11-15号,49100,3.7,0.27,1,0.5,False,False,True,23.1459258937028,113.3659637162961
海外宿舍,天河-科韵路-天河建华路95号,38800,3.0,0.3,1,0.6,False,False,True,23.128110769259795,113.377847130392
嘉惠苑,天河-员村-锦明街5号,26000,2.0,0.15,1,0.8,False,False,True,40.82838390336552,116.4898502468795
广州话剧团宿舍,天河-沙河-新一街13号,26200,1.2,0.2,1,1.0,False,False,True,23.13035783510465,113.36850942427998
广州嘉禾制药厂宿舍,天河-燕塘-银定塘大街28号,28200,1.5,0.33,1,0.8,False,False,True,23.165937323799792,113.33957787839078
规划局宿舍(天河),天河-天河公园-中山大道西267号,48100,2.51,0.4,1,1.0,False,False,True,23.134102943315984,113.37180072583689
惠苑楼(天河),天河-车陂-车陂北街16号,27800,1.1,0.3,1,0.6,False,False,True,23.13035783510465,113.36850942427998
慧仪楼,天河-天河公园-荷光路113-125号,27600,1.8,0.3,0,0.5,False,False,True,23.139302100775303,113.37940209722927
广深铁路员工宿舍,天河-天河公园-枫叶路,19400,1.1,0.32,0,1.5,False,True,False,23.134102943315984,113.37180072583689
广环大厦,天河-天河北-燕岭路436号,26200,3.2,0.38,1,1.0,True,False,False,23.13035783510465,113.36850942427998
广垦科技大厦,天河-粤垦-燕都路80号,20200,1.2,0.3,0,0.5,False,True,False,23.16391372333336,113.33892768486287
环宇大厦(天河),天河-岗顶-石牌东路249号,40400,2.5,0.15,1,0.9,False,False,True,23.13299485893526,113.35007610539077
东风广场,越秀-东风东-东风东路787号,86952,5.19,0.33,1,2.7,False,True,False,23.13526012014849,113.27342648099675
富力东堤湾,越秀-中山路-中山一路,81993,6.96,0.35,1,1.8,True,False,False,23.132842067687957,113.31180245169254
淘金家园,越秀-淘金-淘金东路62号,80414,2.97,0.4,1,1.6,True,False,False,39.934451271209454,116.28479476676124
御江苑,越秀-北京路-南堤二马路36-40号,70194,3.44,0.3,1,2.5,False,True,False,23.121649027685084,113.27597497372771
东湖御苑,越秀-东湖-永胜上沙1号,63397,5.0,0.3,1,0.9,False,False,True,23.12501491568811,113.29388458050478
瑶台花园,越秀-流花-瑶华中街134号,26467,2.6,0.3,1,0.8,False,False,True,23.13526012014849,113.27342648099675
德政中路小区,越秀-农讲所-德政中路217号,41633,2.6,0.25,1,0.8,False,False,True,39.934451271209454,116.28479476676124
东山公寓,越秀-东山口-光东前街7号,26752,2.5,0.3,1,0.9,False,False,True,23.12537311113851,113.30116399920247
五羊华轩,越秀-五羊新城-东泰路46号,60146,2.5,0.3,1,1.7,True,False,False,23.131050433857588,113.31656221326612
万科金色家园,越秀-东风东-东风东路746号,95980,2.4,0.35,1,2.1,False,True,False,23.13526012014849,113.27342648099675
国龙大厦,越秀-小北-环市中路276号,53605,9.7,0.1,1,1.8,False,False,True,39.934451271209454,116.28479476676124
梅花村小区,越秀-梅花村-中山一路,68435,1.2,0.2,1,0.5,False,False,True,23.135228798076866,113.31631976060906
东山一品,越秀-水荫路-水荫路,84761,1.63,0.3,1,2.8,False,True,False,23.144773213032284,113.31855465488661
淘金华庭,越秀-淘金-淘金东路25-29号,57476,2.5,0.3,1,0.9,True,False,False,39.934451271209454,116.28479476676124
嘉和苑,越秀-西门口-东风西路148号,50520,5.0,0.3,1,2.2,False,False,True,23.138971276299678,113.25705612071053
东湖新村,越秀-东湖-东湖西路1-9号,48858,4.0,0.2,1,1.5,False,False,True,23.13526012014849,113.27342648099675
金羊花园,越秀-中山路-中山一路53-1号,68329,4.22,0.33,1,0.6,False,False,True,23.133959043250805,113.31597166722406
华侨乐园,越秀-淘金-恒福路240-244-248号,45837,2.1,0.3,1,1.8,False,False,True,39.934451271209454,116.28479476676124
润粤大厦,越秀-水荫路-天河路35号,68327,2.5,0.28,0,2.0,False,False,True,23.140513981373985,113.3178998800006
富力御龙庭,越秀-淘金-淘金路108-138号,72128,4.04,0.38,1,2.5,True,False,False,23.145767468204248,113.294713357168
小东园,越秀-东山口-小东园,85749,1.9,0.45,1,0.8,True,False,False,23.130010454257615,113.30412975484269
共和村,越秀-共和路-共和大街,45133,1.2,0.27,1,0.5,False,False,True,23.130659019627767,113.31332472020924
东海嘉园,越秀-五羊新城-东泰路,94630,2.6,0.43,1,1.5,False,True,False,23.12608576017046,113.31711413217127
文德先生,越秀-北京路-珠光路82号,83373,8.2,0.3,1,2.8,False,True,False,23.12465929503101,113.27924552442737
华侨新村友爱路小区,越秀-淘金-友爱路,61225,1.8,0.36,0,0.6,False,False,True,39.934451271209454,116.28479476676124
东湖北大院,越秀-东湖-合群一马路85号,113484,4.1,0.25,1,0.8,False,False,True,23.125455036475586,113.29759592971803
麓湖大厦,"越秀-麓湖-麓景路126号,128号",55712,2.8,0.2,1,1.6,False,False,True,23.15138659767875,113.28547680025638
麓湖御景,越秀-淘金-麓苑路39号,50797,7.05,0.3,1,2.5,False,False,True,39.934451271209454,116.28479476676124
东川路白云楼,越秀-东川-东华南路159号,51948,2.5,0.36,0,0.9,False,False,True,23.125833587376054,113.29153748786909
方凯华庭,越秀-小北-应元路5号,71160,9.09,0.3,1,2.0,False,True,False,39.934451271209454,116.28479476676124
恒鑫御园,越秀-盘福-解放北路680号,75693,6.5,0.33,1,2.0,True,False,False,39.934451271209454,116.28479476676124
辉煌大厦,越秀-东川-白云路46-50号,48037,2.4,0.28,1,1.55,False,False,True,39.934451271209454,116.28479476676124
仰忠阁,越秀-北京路-珠光路114-118号,64769,8.0,0.2,1,1.75,False,False,True,23.124841343014538,113.27875433097468
菜园西小区,越秀-东山口-菜园西路,43708,1.5,0.15,0,1.0,True,False,False,23.130636503511905,113.30225669802445
湖滨小区,越秀-大沙头-东湖西路6-70号,46707,4.0,0.15,0,0.9,False,False,True,23.13526012014849,113.27342648099675
寺贝通津小区,越秀-东山口-寺贝通津23号,61561,1.5,0.5,0,0.9,False,False,True,23.128482250215054,113.30601502861587
富力盈泽苑,越秀-东川-较场东路33号,78254,3.8,0.3,0,1.5,False,False,True,23.130800098377414,113.29140732340073
淘金北小区,越秀-淘金-淘金北路7-53号,44554,2.1,0.28,1,1.2,False,False,True,39.934451271209454,116.28479476676124
恒福路小区,越秀-淘金-恒福路19-97号,34339,3.1,0.29,0,1.0,False,False,True,39.934451271209454,116.28479476676124
豪贤苑,越秀-农讲所-仁生里13号,52269,6.0,0.16,1,1.5,True,False,False,23.128036240300467,113.28621889043792
东华西路小区,越秀-东川-东华西路,39477,2.5,0.35,1,0.8,False,False,True,39.934451271209454,116.28479476676124
大沙头路小区,"越秀-大沙头-大沙头20,21号,大沙头三马路2号",37598,2.4,0.2,0,0.5,False,True,False,23.1198410397017,113.29108258595897
越秀上品轩,越秀-西门口-中山六路285-287号,61235,1.65,0.25,1,2.5,False,True,False,23.131081923086324,113.2619773077842
邮电小区,越秀-建设-华乐路,44944,3.6,0.3,1,0.9,True,False,False,39.934451271209454,116.28479476676124
粤泰荣廷府,越秀-东川-东华西路52-56号,84961,2.5,0.3,1,2.8,False,True,False,23.12829862858015,113.28529282728799
中山一路小区,越秀-杨箕-中山一路5-13号,54185,2.5,0.35,0,1.0,False,False,True,23.134976559585777,113.32065345587942
东湖豪苑,越秀-东山口-东湖路26号,89317,4.25,0.5,1,0.9,False,False,True,23.126762926916566,113.29707194811424
拥翠小区,越秀-建设-建设大马路17号,45233,0.45,0.1,1,0.9,False,False,True,39.934451271209454,116.28479476676124
天伦花园,越秀-建设-建设四马路17-29号,74987,1.3,0.3,1,2.0,True,False,False,39.934451271209454,116.28479476676124
丹桂里,越秀-小北-丹桂里12号,61156,2.3,0.2,0,1.3,False,False,True,23.138949426236184,113.27713621326008
文德广场,越秀-北京路-文德南路54~64号,59178,2.5,0.28,0,0.9,False,False,True,23.124289963689808,113.27929079902505
淘金路小区,越秀-淘金-淘金路,53735,2.7,0.33,1,0.5,False,False,True,23.14583293193611,113.2945488774292
名门越秀,越秀-北京路-万福路291-295号,90572,3.3,0.35,1,2.8,False,True,False,23.125486194678746,113.2782880205846
银基金湾,越秀-越秀南-越秀南路1号,60258,9.17,0.35,1,2.8,False,True,False,23.124073848293097,113.28587672586927
东兴小区,越秀-五羊新城-东兴北路1-102号,46659,2.6,0.4,0,0.65,False,False,True,23.128405145776703,113.31674995911766
东川大厦,越秀-东川-东川路6号,74501,2.0,0.3,1,1.5,True,False,False,23.13526012014849,113.27342648099675
麓湖轩,越秀-小北-麓湖路9号,60443,6.0,0.3,1,2.8,False,True,False,39.934451271209454,116.28479476676124
东湖肯辛顿,越秀-东湖-东湖西路30-44号,72195,3.8,0.3,0,0.6,False,True,False,23.13526012014849,113.27342648099675
大沙头三马路大院,越秀-东湖-大沙头三马路9-11号,42771,1.2,0.2,0,0.5,False,False,True,23.121355467085408,113.29141918103346
朝天路大院,越秀-西门口-朝天路,35000,2.6,0.25,0,0.8,False,False,True,39.934451271209454,116.28479476676124
洪都大厦,越秀-黄花岗-先烈中路81号,66537,2.5,0.3,0,0.9,False,True,False,23.13526012014849,113.27342648099675
桂花岗小区,越秀-解放北-桂花路1-2号,39426,2.5,0.4,1,1.0,False,False,True,23.13526012014849,113.27342648099675
东山紫园,越秀-东风东-东风东路745号,82022,7.39,0.35,1,2.6,False,True,False,23.13526012014849,113.27342648099675
保利麓苑,越秀-淘金-麓苑路33号,62677,8.03,0.3,1,1.85,False,True,False,39.934451271209454,116.28479476676124
农林上路小区,越秀-农林下路-农林下路,66682,1.5,0.35,0,2.4,False,False,True,23.13508356991333,113.30393095983341
城启波尔多庄园,越秀-淘金-淘金东路141号,52757,4.0,0.22,0,2.1,True,False,False,39.934451271209454,116.28479476676124
大东门华庭,越秀-农讲所-中山四路6-8号,67182,1.72,0.4,1,1.8,False,True,False,39.934451271209454,116.28479476676124
恤孤院路小区,越秀-东山口-恤孤院路,72182,3.0,0.3,0,0.5,False,False,True,23.130636503511905,113.30225669802445
天锦大厦,越秀-中山路-中山一路41号,55327,2.12,0.41,1,1.0,False,False,True,23.134477980049844,113.31748153912474
金宝怡庭,越秀-东川-中山三路125-127号,54745,2.5,0.16,1,1.9,False,True,False,39.934451271209454,116.28479476676124
东方花苑,越秀-杨箕-广州大道中353-367号,47665,5.0,0.38,1,2.0,False,False,True,23.13358093096108,113.31614845374837
东悦居,越秀-五羊新城-寺右北二街20号,60000,2.5,0.4,0,1.95,False,False,True,23.126695792011958,113.31935297899305
水均大街小区,越秀-东风东-水均大街,49304,2.0,0.35,1,0.5,False,False,True,23.13526012014849,113.27342648099675
小北路小区,越秀-小北-小北路,53440,2.56,0.26,1,1.8,False,False,True,39.934451271209454,116.28479476676124
青菜东社区,越秀-建设-华乐路,45388,2.5,0.34,0,2.0,False,True,False,39.934451271209454,116.28479476676124
羊和园,越秀-共和路-共和三路9号,68599,2.5,0.4,1,0.75,False,False,True,23.131784322038957,113.31369401360428
锦桦大厦,越秀-东川-东华东路351号,62255,6.93,0.2,1,1.5,True,False,False,23.12859832222146,113.29435349598084
东华东路小区,越秀-东山口-东华东路,63346,1.2,0.2,0,0.5,False,False,True,23.130636503511905,113.30225669802445
执信南路小区,越秀-农林下路-执信南路,51294,2.5,0.3,1,1.1,False,False,True,23.134395478706058,113.29847303521768
北秀花园(越秀),越秀-小北-天香街3-9号,74931,3.7,0.31,1,1.8,False,False,True,39.934451271209454,116.28479476676124
珠光小北御景,越秀-小北-小北路198号,92605,2.5,0.25,1,2.5,False,True,False,39.934451271209454,116.28479476676124
盈基大厦,越秀-东湖-东船上街街口1号,49690,2.5,0.3,1,1.2,True,False,False,23.13526012014849,113.27342648099675
御东和府,"越秀-农林下路-农林下路35,39号",79895,2.5,0.3,1,2.7,False,True,False,23.135785947667785,113.30374734618722
越华路小区,越秀-北京路-越华路,36934,2.5,0.36,1,0.6,False,True,False,23.135671045103052,113.27444884249732
方兴竹雅苑,越秀-流花-温泉新街14-20号,42870,2.19,0.37,1,2.6,False,True,False,39.934451271209454,116.28479476676124
东园新村(越秀),越秀-中山路-农林东路,58695,2.8,0.36,0,1.2,False,False,True,23.133352285080555,113.3057965607159
百好居,越秀-东山口-中山一路96-98号,67970,3.6,0.29,1,1.2,False,False,True,23.130525916924245,113.30462139744814
逸雅居,越秀-建设-建设大马路8-5号,66086,2.43,0.3,0,2.3,False,False,True,23.13526012014849,113.27342648099675
建设四马路小区,越秀-建设-建设四马路26-43号,51509,1.8,0.26,1,0.9,False,False,True,39.934451271209454,116.28479476676124
北京大厦,越秀-北京路-北京路68号,59591,2.5,0.25,0,1.9,False,False,True,23.12425240732934,113.27680240293269
海印花园,越秀-大沙头-大沙头马路27号之1,62154,6.17,0.3,1,0.9,False,False,True,23.121281682150958,113.29199068299872
和风雅居,越秀-东山口-梅花路8号,73500,3.8,0.35,1,2.1,True,False,False,23.13508905335947,113.31563435350519
精彩生活大厦,越秀-北京路-文明路36-48号,76541,2.5,0.3,0,0.9,False,True,False,23.127575107012174,113.27690696569401
仁安新街大院,越秀-小北-小北路202号,56576,1.9,0.38,1,0.9,False,False,True,39.934451271209454,116.28479476676124
联发名阁,越秀-东川-东华南路172号,59940,5.21,0.2,1,1.8,False,False,True,23.12669562583641,113.29519817265158
东山锦轩,越秀-东山口-农林下路4-6号,72529,7.5,0.1,1,2.4,True,False,False,23.131441514592886,113.30213578610287
仓前大厦,越秀-西门口-仓前街58号,32857,3.1,0.17,1,1.2,True,False,False,23.13529194070705,113.26511401096292
五羊新城(E区),越秀-五羊新城-寺右南三街,48085,2.0,0.4,1,0.5,False,False,True,23.12608576017046,113.31711413217127
华侨新村光明路小区,越秀-淘金-光明路,69479,2.0,0.24,0,0.5,False,False,True,39.934451271209454,116.28479476676124
嘉富广场,越秀-水荫路-水荫横路55-63号,60902,4.6,0.4,1,2.5,True,False,False,23.14958740560585,113.31950596042137
大德路小区,越秀-西门口-大德路135号,26724,2.3,0.12,0,0.9,False,False,True,23.12390384723767,113.26448510727559
银山大厦,越秀-农讲所-仓边路93-95号,62712,1.0,0.2,0,0.9,False,False,True,39.934451271209454,116.28479476676124
粤港大厦,越秀-东山口-龟岗大马路4号,71494,5.65,0.21,1,1.05,False,False,True,23.127273749310483,113.30164944349991
海珠中路小区,越秀-西门口-海珠中路169号,29606,1.5,0.25,1,1.0,False,False,True,23.128756435893504,113.26309578797431
象岗山小区,越秀-解放北-解放北路,36093,1.5,0.35,1,1.0,False,True,False,23.14617196376598,113.27005505058837
荔湾西华路小区,荔湾-陈家祠-西华路300-600号,31382,3.11,0.17,1,0.9,False,False,True,23.139580916543036,113.25036365483285
广东省地质局大院,越秀-东风东-东风东路741号,44540,2.0,0.12,0,1.0,False,True,False,23.13526012014849,113.27342648099675
东山公馆,越秀-农林下路-农林下路11号,58212,2.5,0.3,1,1.8,False,True,False,23.132157122053503,113.30188695547668
越秀花苑大厦,越秀-小北-小北路219-233号,52825,4.2,0.38,1,1.8,False,False,True,39.934451271209454,116.28479476676124
天秀大厦,越秀-小北-环市中路300号,38200,2.1,0.1,1,1.4,False,False,True,39.934451271209454,116.28479476676124
青龙坊小区,越秀-建设-青龙坊,42895,1.6,0.4,1,0.6,True,False,False,23.140562416489516,113.2957748847888
梅花路电力设计院宿舍,越秀-东风东-梅花路65号,70711,2.0,0.35,0,0.6,False,False,True,23.137576105132542,113.31486702093882
嘉骏苑,越秀-东川-白云路89号,50925,4.2,0.36,0,1.5,False,False,True,39.934451271209454,116.28479476676124
黄华路小区,越秀-建设-黄华路,48267,2.0,0.34,1,0.8,False,False,True,39.934451271209454,116.28479476676124
豆腐寮,越秀-小北-大华街12号,64361,3.5,0.35,1,0.6,True,False,False,23.13526012014849,113.27342648099675
新河浦雅居小区,越秀-东山口-恤孤院路11号,77941,4.7,0.3,1,1.2,False,False,True,23.12574925271016,113.30310460859505
华荟大厦,越秀-北京路-万福路19-95号,55544,2.5,0.22,1,1.3,True,False,False,23.12642060501813,113.28340045690129
金麓山庄,越秀-麓湖-下塘西路131-157号,36461,6.8,0.41,1,1.5,True,False,False,23.13526012014849,113.27342648099675
水荫翠苑,越秀-水荫路-水荫路70-80号,66521,4.0,0.2,1,1.3,False,True,False,23.145594753457,113.31904764495032
荣华南社区,越秀-东川-荣华南62号,50802,1.65,0.2,1,0.5,False,False,True,23.130919824100808,113.28645640241467
丽苑大厦(越秀),越秀-东川-东华西路113号,40897,2.5,0.2,1,1.0,False,False,True,23.128650085152184,113.28746852323243
三眼井小区,越秀-小北-应元路,62872,1.5,0.3,1,0.9,False,False,True,39.934451271209454,116.28479476676124
嘉洲翠庭,"越秀-小北-应元路113号,115号",81952,2.7,0.3,1,2.5,True,False,False,39.934451271209454,116.28479476676124
菜园东小区,越秀-东山口-东华东街,51397,1.2,0.35,1,0.5,False,False,True,23.130636503511905,113.30225669802445
宜安里,越秀-北京路-宜安里1号,44883,1.5,0.3,0,0.9,False,False,True,23.12354273967855,113.27254677041111
海印苑小区,越秀-东湖-合群一马路133-135号,69084,4.46,0.32,1,0.9,False,False,True,23.12622460040715,113.29540199817173
金贵小区,越秀-广园东-金贵街,25250,2.5,0.3,1,0.5,False,False,True,39.934451271209454,116.28479476676124
朱紫寮,越秀-小北-朱紫寮1-52号,55705,2.32,0.3,0,0.9,False,False,True,23.143000432900703,113.2813364203317
越秀北路小区,越秀-小北-越秀北路81号,52602,2.6,0.28,1,0.65,False,False,True,39.934451271209454,116.28479476676124
广州海运集团明月住宅小区,越秀-五羊新城-明月一路60号,64847,2.7,0.12,0,0.9,False,False,True,23.120865145484377,113.31671303876121
绿景东山华庭,越秀-大沙头-东船上街14-42号,67314,2.23,0.31,1,2.5,False,True,False,23.13526012014849,113.27342648099675
花园新村,越秀-大沙头-大沙头二马路38号,36694,4.0,0.4,1,0.6,False,True,False,23.13526012014849,113.27342648099675
东雅轩小区,越秀-东山口-中山二路菜园东19号,60511,3.4,0.3,0,1.8,True,False,False,23.129384817478282,113.29742354489072
启明社区,越秀-东山口-启明横马路17号,87000,1.2,0.38,0,0.5,False,False,True,23.127565801242827,113.29899126766621
水荫路45号大院,越秀-水荫路-水荫路45号,44871,1.5,0.2,1,0.9,False,False,True,23.14419300586554,113.31775300704977
北较场横路18号大院,越秀-建设-北较场横路18号,32200,1.2,0.35,1,2.3,False,False,True,23.13526012014849,113.27342648099675
一德花园,越秀-解放南-解放南路与一德路交叉路端,42008,4.97,0.15,1,2.0,False,False,True,23.123622339634537,113.2687039991018
雅景花园,越秀-水荫路-水荫路29号,47600,3.3,0.2,1,2.0,False,False,True,23.143458106371913,113.31692270326717
淘金北路正平北街小区,越秀-淘金-正平北街,45800,2.1,0.2,1,1.2,False,False,True,39.934451271209454,116.28479476676124
较场东路小区,越秀-东川-较场东路5-14号,56764,2.36,0.24,0,0.68,False,False,True,23.132422160873684,113.29134417252341
光塔路小区,越秀-西门口-光塔路,34081,3.5,0.3,0,1.2,False,True,False,23.13097000750858,113.26058196983602
富宏花园,越秀-小北-应元路76号,61411,2.66,0.37,1,1.7,False,True,False,39.934451271209454,116.28479476676124
东山欣园,越秀-五羊新城-寺右一马路189-193号,98652,3.8,0.35,1,2.5,False,True,False,23.128193108340074,113.31517136684549
德兴苑,越秀-解放南-一德路398-400号,35200,2.5,0.3,1,1.5,False,False,True,23.13526012014849,113.27342648099675
福恩里小区,越秀-北京路-中山四路,47661,2.0,0.33,0,1.0,False,False,True,23.132632031362988,113.27891997851066
珠江园,越秀-北京路-文德南路58号,43510,2.0,0.4,1,0.9,False,False,True,23.1239144826962,113.27948959403435
文德雅轩,越秀-北京路-聚仁坊9号,74090,5.0,0.3,1,2.0,True,False,False,23.127940856465326,113.2812570999552
小北大厦,越秀-小北-小北路126-134号,59188,2.85,0.15,1,0.9,False,False,True,39.934451271209454,116.28479476676124
越秀南社区,越秀-农讲所-越秀南路,60789,1.5,0.2,0,0.9,False,False,True,39.934451271209454,116.28479476676124
淘金公馆,越秀-淘金-淘金东路100号,60866,5.3,0.4,0,1.0,False,True,False,39.934451271209454,116.28479476676124
侨福苑,越秀-淘金-淘金坑66-68号,49798,1.6,0.2,1,2.6,False,False,True,23.14763865481542,113.29744690083398
小石街新街小区,越秀-小北-小石街新街,66133,1.5,0.16,0,0.9,False,False,True,23.13526012014849,113.27342648099675
仰忠街小区,越秀-北京路-仰忠街,61929,2.0,0.15,1,0.8,False,False,True,23.12761723222775,113.27782000341405
城启恒华阁,越秀-淘金-淘金北路71-73号,55071,5.0,0.3,1,1.3,True,False,False,39.934451271209454,116.28479476676124
水荫路34号大院,越秀-水荫路-水荫路34号,65478,1.5,0.4,1,0.6,False,False,True,23.14178990428944,113.31565384673475
署前二街小区,越秀-东山口-署前二街,49933,2.0,0.2,1,1.0,False,False,True,23.130636503511905,113.30225669802445
科苑社区,越秀-黄花岗-先烈中路81号,48565,2.6,0.3,1,0.9,True,False,False,23.13526012014849,113.27342648099675
清水濠小区,越秀-农讲所-德政中路,43710,4.0,0.4,1,0.5,False,False,True,39.934451271209454,116.28479476676124
广信顺景大厦,越秀-五羊新城-东山寺右二横路19号,49074,2.5,0.1,1,1.2,False,False,True,23.14615593018024,113.32049759987349
国投宿舍,越秀-建设-黄华路14号,42563,2.0,0.1,0,2.0,False,False,True,39.934451271209454,116.28479476676124
富力宜居,越秀-东川-广九大马路13号,56223,4.68,0.2,0,2.0,False,True,False,23.13526012014849,113.27342648099675
中山六路小区,越秀-西门口-中山六路,38091,2.6,0.15,0,0.9,False,False,True,23.13097000750858,113.26058196983602
中曦大厦,越秀-解放南-解放中路306号,48500,7.61,0.34,1,2.0,True,False,False,23.13526012014849,113.27342648099675
新达城公寓,越秀-水荫路-水荫二横路27号,48718,4.0,0.15,1,1.98,False,False,True,23.1459464134048,113.32057368635017
金迪大厦,越秀-杨箕-泰兴直街50号,47911,5.01,0.1,1,1.3,False,False,True,23.134123464848347,113.31859903117878
金山阁,越秀-五羊新城-文化里11号,58156,2.5,0.1,1,1.8,False,False,True,23.12863521265891,113.31704936434403
吉庆东小区,越秀-农讲所-吉庆东路2-4号,36600,1.2,0.2,1,0.5,False,False,True,39.934451271209454,116.28479476676124
康丽居,越秀-北京路-德政中路19号,57695,2.5,0.2,1,1.5,False,False,True,23.128026269867945,113.28288752445526
共和二路小区,越秀-共和路-共和二路,64915,2.3,0.2,0,0.5,False,False,True,23.131912438409096,113.31249711134318
东华西仁秀里,越秀-东川-仁秀里,35680,2.8,0.42,1,0.5,False,False,True,23.128036240300467,113.28621889043792
海印综合大楼,越秀-大沙头-沿江东路429号,57906,2.5,0.3,0,0.9,True,False,False,23.13526012014849,113.27342648099675
白云路45号小区,越秀-东川-白云路45号,29400,1.2,0.2,0,0.5,False,False,True,39.934451271209454,116.28479476676124
达道雅轩,越秀-共和路-共和西路2-4号,77147,5.0,0.3,1,0.9,False,True,False,23.130925058463763,113.30867284512736
狮带岗小区,越秀-麓湖-麓景路,36953,2.6,0.25,1,0.4,False,False,True,23.154880821714496,113.28943913602903
麓景雅苑,越秀-麓湖-麓景路86-98号,53571,3.2,0.3,1,2.0,False,True,False,23.149850581962337,113.28496341865758
惠雅阁,越秀-东风东-东风东路617号,39600,2.5,0.1,1,1.8,False,False,True,23.13526012014849,113.27342648099675
濠畔商厦,越秀-一德路-海珠南路276-296号,11434,2.5,0.15,1,2.8,False,False,True,23.123488398971357,113.26227482656901
大新大厦,越秀-解放南-大新路280-314号,36355,3.0,0.28,1,1.2,False,True,False,23.13526012014849,113.27342648099675
天兴大厦,越秀-中山路-中山一路21-23号,39400,4.55,0.32,1,0.9,False,False,True,23.134562641496295,113.3172331576513
山海城,越秀-解放南-一德路369-373号,43600,2.5,0.3,0,1.6,True,False,False,23.13526012014849,113.27342648099675
中山四路小区,越秀-农讲所-中山四路166号,39119,2.5,0.35,0,1.2,False,False,True,39.934451271209454,116.28479476676124
淘金花园,越秀-淘金-恒福路108号,40000,2.8,0.25,1,2.1,False,False,True,39.934451271209454,116.28479476676124
颐和雅轩,越秀-小北-洪桂新街1-5号,90000,2.5,0.35,1,2.6,False,True,False,23.13526012014849,113.27342648099675
俊逸阁,越秀-农讲所-大塘街62-66号,56943,2.5,0.3,1,1.5,False,True,False,39.934451271209454,116.28479476676124
丽水坊小区,越秀-北京路-越秀南路,41000,2.0,0.4,0,2.5,False,False,True,23.12588535138581,113.2843839217733
麓湖盛景,越秀-麓湖-麓景西路36号,44200,3.5,0.29,1,2.5,True,False,False,23.151248448373167,113.28204024269853
惠福西路大院,越秀-西门口-惠福西路,27540,1.5,0.1,1,0.9,False,False,True,23.13097000750858,113.26058196983602
广信黄田小区,越秀-麓湖-麓景路113号,37400,2.0,0.35,1,0.8,False,False,True,23.150726254326774,113.2847365965164
仓边路小区,越秀-农讲所-仓边路32号,48234,2.5,0.36,1,1.1,False,False,True,39.934451271209454,116.28479476676124
农林上路一横路大院,越秀-东风东-农林上路一横路,72575,2.7,0.32,0,1.2,False,False,True,23.13526012014849,113.27342648099675
九功坊,越秀-小北-东风中路,32200,0.8,0.2,0,0.9,False,True,False,39.934451271209454,116.28479476676124
较场小苑,越秀-东川-较场东路,46800,2.84,0.36,0,1.5,False,False,True,23.131290881762997,113.29129629283975
东兴北路62-68号小区,越秀-五羊新城-东兴北路62-68号,47302,1.2,0.3,0,1.0,False,True,False,23.130035712307304,113.32026089637169
海印东山100,越秀-大沙头-东华南路100号,71374,2.6,0.3,1,2.8,False,True,False,23.13526012014849,113.27342648099675
东环路6号大院,越秀-东风东-东环路6号,52805,1.2,0.3,1,1.15,True,False,False,23.13526012014849,113.27342648099675
淘金雅苑,越秀-淘金-淘金路163号,53236,4.2,0.4,1,0.9,False,False,True,23.14697123140263,113.29599470014702
山河后街小区,越秀-东山口-山河后街,52706,2.0,0.23,0,1.0,False,False,True,23.13526012014849,113.27342648099675
四圣街大院,越秀-东川-东华西路226-238号,40436,0.9,0.3,1,0.5,False,False,True,23.127638004025375,113.28977806669783
山河东街小区,越秀-东山口-山河东街,61922,2.3,0.12,1,0.6,False,False,True,23.13526012014849,113.27342648099675
龟岗四马路小区,越秀-东山口-龟岗四马路,59306,2.0,0.3,0,1.2,False,False,True,23.130636503511905,113.30225669802445
明月二巷小区,越秀-五羊新城-明月二路,46200,1.5,0.2,0,0.6,False,False,True,23.12532300870155,113.31876198379824
共和西小区,越秀-共和路-共和西路1号,67857,1.5,0.33,1,0.61,False,True,False,23.131426891667086,113.3098224066881
法政社区,"越秀-小北-登瀛路3之1,5之1,7-10号",54500,1.2,0.2,0,0.5,False,False,True,23.14427973802618,113.28073177089313
仓前街小区,越秀-西门口-仓前街,28808,2.49,0.29,1,1.2,False,False,True,39.934451271209454,116.28479476676124
东兴大厦,越秀-东风东-环市东路492号,38688,3.9,0.25,0,1.8,False,False,True,23.13526012014849,113.27342648099675
越秀解放北路小区,越秀-解放北-解放北路,39443,3.2,0.38,0,0.4,False,False,True,23.14617196376598,113.27005505058837
永怡新都,越秀-黄花岗-永福路8号,45600,4.0,0.48,1,2.0,False,True,False,23.15070872598312,113.30763871582462
五矿大院,越秀-大沙头-大沙头路19号,38433,1.2,0.2,0,0.5,False,False,True,23.13526012014849,113.27342648099675
愉景大厦,越秀-五羊新城-寺右二马路16-18号,43800,2.5,0.3,1,1.7,False,False,True,23.123884985914568,113.3167179794415
培正路小区,越秀-东山口-培正路,88301,1.5,0.3,1,0.3,False,False,True,23.130636503511905,113.30225669802445
凯城华庭,越秀-黄花岗-先烈中路83号,47000,7.3,0.37,1,1.8,True,False,False,23.13526012014849,113.27342648099675
六榕路小区,越秀-西门口-六榕路,36820,2.6,0.35,1,1.0,False,False,True,39.934451271209454,116.28479476676124
明达大厦,越秀-小北-应元路46-48号,71257,2.69,0.28,1,0.9,False,False,True,39.934451271209454,116.28479476676124
建设六马路小区,越秀-建设-建设六马路,44400,3.4,0.3,0,1.8,False,False,True,39.934451271209454,116.28479476676124
司马街大院,越秀-西门口-司马街,39332,2.51,0.25,0,0.9,False,False,True,39.934451271209454,116.28479476676124
翰林阁,越秀-黄花岗-先烈中路82-1号,53000,3.1,0.35,1,1.9,False,False,True,23.13526012014849,113.27342648099675
第一津街小区,越秀-西门口-第一津街,28796,2.53,0.14,1,1.2,False,False,True,39.934451271209454,116.28479476676124
东堤水岸,越秀-越秀南-东沙角路35-37号,63704,8.3,0.3,1,1.8,False,True,False,23.13526012014849,113.27342648099675
东鸣轩,越秀-农讲所-中山四路199-231号,69852,2.6,0.36,1,1.98,False,False,True,39.934451271209454,116.28479476676124
丛桂坊,越秀-五羊新城-达道路4号,45600,1.0,0.3,0,1.2,False,False,True,23.12869270854547,113.30912559110423
海珠北路大院,越秀-西门口-海珠北路67号,30022,1.5,0.2,0,1.2,False,False,True,23.13327044770556,113.26416602915855
西华二巷小区,越秀-解放北-西华二巷,36800,2.0,0.3,0,0.5,False,False,True,23.13526012014849,113.27342648099675
五羊新城(B区),越秀-五羊新城-寺右南北路,42746,1.0,0.25,0,1.5,False,False,True,23.127617980012523,113.31067103590308
应元宫道小区,越秀-小北-应元路23号,66124,2.51,0.35,0,0.5,False,False,True,39.934451271209454,116.28479476676124
寺右东小区,越秀-五羊新城-寺右四巷1号,42400,2.0,0.21,1,0.9,False,False,True,23.12679549730359,113.31529632114189
五羊新城(A区),越秀-五羊新城-寺右路,45800,3.0,0.2,1,0.5,False,False,True,23.12608576017046,113.31711413217127
水荫西约小区,越秀-东风东-水荫路13-15号,41037,1.2,0.3,1,0.5,False,True,False,23.13526012014849,113.27342648099675
碧翠苑,越秀-小北-下塘西路435号,31800,3.6,0.3,1,0.9,True,False,False,39.934451271209454,116.28479476676124
文明路小区,越秀-北京路-文明路,42342,1.5,0.2,0,0.9,False,False,True,23.128945457508387,113.27944360079225
艺轩小区,越秀-东湖-沿江东路419号,45800,3.0,0.4,1,0.5,False,False,True,23.120813047149806,113.28983834299753
永福西约,越秀-黄花岗-永福路5-183号,33200,3.4,0.2,1,0.9,False,False,True,23.152209924677503,113.30720384612738
水荫路大院,越秀-水荫路-水荫路52-54号,37800,1.0,0.3,1,0.8,False,False,True,23.14394385827994,113.31797946986875
文德路大院,越秀-北京路-文德路48号,52500,1.2,0.28,0,1.0,False,False,True,23.127671903592127,113.27929681767196
应元大厦,越秀-小北-应元路121-127号,61825,3.8,0.2,1,1.6,False,False,True,39.934451271209454,116.28479476676124
下塘西大院,越秀-麓湖-下塘西35-610号,34755,2.36,0.25,1,1.0,False,False,True,23.148778184878655,113.28050791316012
龙湖大厦,越秀-大沙头-东湖路128号,61537,1.83,0.25,1,2.5,False,False,True,23.13526012014849,113.27342648099675
东川路小区,越秀-东川-东川路,52464,1.8,0.16,1,0.6,False,False,True,23.13526012014849,113.27342648099675
诗书路小区,越秀-解放南-诗书路56号,31333,1.2,0.2,1,0.5,False,False,True,23.13526012014849,113.27342648099675
君铂国际,越秀-东风东-东风东路701号,52500,1.92,0.29,1,2.5,False,True,False,23.13526012014849,113.27342648099675
机务段小区,越秀-流花-机务段大街,22164,2.52,0.14,1,0.8,False,False,True,23.13526012014849,113.27342648099675
保安前街小区,越秀-东山口-保安前街10-20号,51000,2.4,0.18,1,1.0,False,False,True,23.12634931554074,113.30678433745435
越富广场,越秀-西门口-人民北路833-835号,32992,2.8,0.28,0,1.4,False,False,True,23.135992821882514,113.26095476662255
淘金街20号-34号小区,越秀-淘金-淘金街20-34号,50500,1.5,0.3,1,1.5,False,False,True,23.14602683066785,113.2940675653371
水荫小区,越秀-水荫路-水荫路,43316,2.3,0.36,1,0.5,False,False,True,23.144773213032284,113.31855465488661
较场西路13号大院,越秀-东川-较场西路13号,69751,1.5,0.2,1,0.8,False,False,True,23.129239582914035,113.28955456828702
解放中路小区,越秀-北京路-解放中路,36998,3.6,0.35,1,0.6,False,False,True,23.128800970241095,113.26882006017365
福泉街小区,越秀-西门口-福泉街,35833,1.5,0.25,0,1.0,False,False,True,23.13097000750858,113.26058196983602
海月街小区,越秀-东川-海月街,40891,2.5,0.25,0,1.2,False,False,True,39.934451271209454,116.28479476676124
北较场横路3号大院,越秀-建设-北较场横路3号,62933,1.2,0.2,0,0.5,False,False,True,23.13526012014849,113.27342648099675
中山三路小区,越秀-东川-中山三路,42363,1.5,0.2,0,0.9,False,False,True,39.934451271209454,116.28479476676124
永胜上沙小区,越秀-东湖-永胜上沙20号,42200,1.56,0.35,0,0.5,False,False,True,23.125154421755603,113.29327148699441
太和岗小区,越秀-黄花岗-太和岗路,46000,2.0,0.16,0,0.7,False,False,True,23.147806548575133,113.30275193385195
兴隆东社区,越秀-解放北-百灵路66号,42773,2.47,0.2,1,0.7,False,False,True,23.137375547550906,113.26584666893662
万福路小区,越秀-北京路-万福路349号,46035,2.4,0.18,0,0.8,False,False,True,23.12549084763646,113.27734974047972
太华坊,越秀-小北-小北路,50220,2.48,0.22,0,0.9,False,False,True,39.934451271209454,116.28479476676124
太平沙小区,越秀-北京路-北京南路,34171,2.1,0.15,1,1.2,False,False,True,23.12538283250469,113.27553246843365
深华大厦,越秀-五羊新城-新马路131-133号,48100,1.5,0.35,1,0.9,False,False,True,23.12608576017046,113.31711413217127
新城市玥秀,越秀-小北-洪桥街13-37号,75644,3.6,0.42,0,2.5,False,True,False,23.13526012014849,113.27342648099675
云鹤北街小区,越秀-黄花岗-云鹤北街,40800,2.8,0.4,0,2.0,False,False,True,23.146552947776687,113.30452806350569
淘金东路小区,越秀-淘金-淘金东路41-47号,43800,2.8,0.32,1,1.8,True,False,False,39.934451271209454,116.28479476676124
兴仁里小区,越秀-东川-兴仁里84号,34086,3.0,0.17,1,0.9,False,False,True,23.127957141515207,113.28827178801919
农林上路八横路大院,越秀-东山口-农林上路八横路,59391,2.0,0.4,0,0.9,False,False,True,23.134695241651183,113.30470601782716
麓景东大院,越秀-麓湖-麓景东路,35400,2.3,0.3,1,2.5,False,False,True,23.154880821714496,113.28943913602903
培正东街小区,越秀-东山口-培正东街,76160,1.5,0.2,0,0.5,False,False,True,23.125236596493824,113.30438541259075
牛乳基小区,越秀-东川-东川路,47694,1.2,0.35,1,0.55,False,False,True,23.13526012014849,113.27342648099675
绿荫路小区,越秀-大沙头-绿荫路3号,32400,1.8,0.2,1,1.6,False,False,True,23.12213411167933,113.29124643688395
农林上路三横路大院,越秀-东山口-农林上路三横路,62000,2.5,0.35,0,1.5,False,False,True,23.132657205829293,113.30431570408321
农本新村,越秀-东山口-农林下路,54514,1.2,0.35,0,0.8,False,False,True,23.130636503511905,113.30225669802445
水荫二横路小区,越秀-水荫路-水荫二横路1-11号,46600,2.0,0.2,1,1.2,False,False,True,23.146450017402934,113.32016666412373
世贸花园,越秀-淘金-淘金路54号,53296,1.45,0.25,1,1.8,True,False,False,39.934451271209454,116.28479476676124
青云直街小区,越秀-北京路-青云直街,45600,1.2,0.3,1,0.5,False,True,False,23.127284716848436,113.27810844931321
建雅台,越秀-东川-荣华南7-9,51219,3.0,0.2,1,1.5,False,False,True,23.130919824100808,113.28645640241467
华乐路小区,越秀-建设-华乐路,46971,1.5,0.26,0,0.9,False,True,False,39.934451271209454,116.28479476676124
东雅兰院,越秀-杨箕-泰兴直街66号,56733,2.0,0.23,0,0.9,False,True,False,23.134468010101664,113.31898997373659
大华园宿舍,越秀-小北-应元路45号,51000,1.5,0.2,1,0.9,False,False,True,39.934451271209454,116.28479476676124
鸿业大厦,越秀-五羊新城-东兴南路67号,54000,7.93,0.3,0,0.9,False,False,True,23.12761997410523,113.31887526012301
翰雅明轩,越秀-农讲所-中山四路34号,73602,8.7,0.35,1,2.0,False,True,False,39.934451271209454,116.28479476676124
东山龙珠大厦,越秀-农林下路-竹丝岗二马路5号,86519,4.2,0.32,1,2.5,True,False,False,23.133820543444738,113.30043017343162
北园社区,越秀-小北-小北路218号,47043,0.5,0.2,1,0.9,False,False,True,39.934451271209454,116.28479476676124
百灵路小区,越秀-西门口-百灵路20号,44616,2.5,0.35,1,0.5,False,False,True,23.136820647839016,113.26675476597634
白云宾馆宿舍,越秀-淘金-淘金坑22-25号,45800,2.5,0.2,1,1.5,False,False,True,23.14763865481542,113.29744690083398
华友大厦,越秀-五羊新城-寺右新马路5号之五,52500,2.5,0.3,0,0.9,False,True,False,23.126400331557598,113.31147870238684
置地大厦,越秀-东川-较场西路6号,55904,2.5,0.3,0,0.9,False,False,True,23.13526012014849,113.27342648099675
东山京士柏,越秀-东川-东华东路558-598号,128208,4.1,0.3,1,0.9,False,True,False,23.1268490057792,113.29822501306646
嘉兰轩,越秀-西门口-大新路388号,52219,2.0,0.3,1,2.8,False,True,False,23.12147536751637,113.26153731774556
淘金坑小区,越秀-淘金-淘金坑34-53号,51772,1.5,0.2,0,0.9,False,False,True,23.14763865481542,113.29744690083398
先烈南路大院,越秀-建设-先烈南路21号,45315,1.5,0.2,1,1.0,False,False,True,23.13526012014849,113.27342648099675
御龙国际商寓,越秀-流花-广园西路235号,23034,4.8,0.3,1,2.0,False,True,False,39.934451271209454,116.28479476676124
新河浦一横路小区,越秀-东湖-新河浦一横路16号,57500,1.2,0.3,0,0.5,False,False,True,23.13526012014849,113.27342648099675
五羊新城(C区),越秀-五羊新城-寺右路,45800,2.0,0.4,0,0.9,False,False,True,23.12608576017046,113.31711413217127
五羊北小区,越秀-五羊新城-寺右新马路,45400,1.2,0.2,1,0.6,False,False,True,23.12608576017046,113.31711413217127
雍雅园(越秀),越秀-农讲所-芳草街2号,74669,2.5,0.33,1,1.5,True,False,False,39.934451271209454,116.28479476676124
应元社区,越秀-小北-应元路29号,49064,1.2,0.3,0,0.5,False,False,True,39.934451271209454,116.28479476676124
牛皮巷小区,越秀-东山口-东湖路,61500,1.5,0.2,0,0.9,False,False,True,23.130636503511905,113.30225669802445
乐韵居,越秀-西门口-云路街1-15号,37200,4.72,0.13,1,0.8,False,False,True,23.13526012014849,113.27342648099675
聚仁坊小区,越秀-农讲所-德政中路183号,44613,6.9,0.25,0,0.9,False,False,True,39.934451271209454,116.28479476676124
共和路1-19号小区,越秀-共和路-共和路1-19号,66257,1.5,0.3,1,0.5,False,False,True,23.12974815245062,113.31430450202865
华丰大厦(越秀),越秀-东山口-新河浦路68号,58015,2.3,0.3,0,2.0,False,False,True,23.125303898314304,113.30015672923447
福地巷社区,越秀-西门口-纸行路128号,30788,1.5,0.2,0,0.9,False,False,True,23.13526012014849,113.27342648099675
接龙一巷小区,"越秀-小北-接龙一巷24-28号,30号,34-38号,46号,50-52号",50319,1.2,0.3,1,0.5,False,True,False,23.13526012014849,113.27342648099675
景华大厦,越秀-东川-东华西路150-152号,42754,3.0,0.35,0,1.2,False,False,True,23.128533016151614,113.28804999638885
寺右新马路小区,越秀-五羊新城-寺右新马路62号,44155,1.5,0.2,1,1.0,False,False,True,23.126038981530165,113.31410804261368
共和南小区,越秀-共和路-共和南路,46401,3.0,0.2,0,0.9,False,False,True,23.129825904260592,113.31107112590591
花城苑(越秀),越秀-二沙岛-松涛街,116444,1.56,0.3,0,0.9,False,False,True,23.11599224239533,113.31139812438263
北京南路麦栏街小区,越秀-北京路-麦栏街,34051,1.5,0.3,0,0.9,False,False,True,23.12471330290248,113.27686896737094
方圆流花月岛,越秀-盘福-流花路109号,89000,4.47,0.3,1,2.5,False,True,False,39.934451271209454,116.28479476676124
市委党校大院,越秀-黄花岗-先烈中路99号,50500,1.2,0.4,0,0.5,False,False,True,23.13526012014849,113.27342648099675
大洋江畔雅苑,越秀-北京路-北京路,82239,2.6,0.3,1,2.8,False,True,False,23.127361821938173,113.27553067182262
德政南路小区,越秀-北京路-德政南路59号,35400,1.5,0.3,0,0.9,True,False,False,23.124107250234392,113.28201616811087
青菜岗小区,越秀-建设-青菜岗44-51号,54385,1.2,0.2,0,0.5,False,False,True,23.13861718851521,113.29242258828776
大沙头四马路小区,越秀-大沙头-大沙头四马路9号,45600,1.5,0.2,0,0.9,False,False,True,23.13526012014849,113.27342648099675
东华南路小区,越秀-东湖-东华南路132号,45096,3.5,0.35,1,1.0,True,False,False,23.124902413368375,113.2919472948426
光孝路小区,越秀-西门口-光孝路,30000,2.0,0.2,0,0.9,False,True,False,23.13097000750858,113.26058196983602
珠光街广舞台社区,越秀-东湖-东堤三马路,36394,1.2,0.15,0,0.5,False,False,True,23.13526012014849,113.27342648099675
瑞兴大厦,越秀-北京路-东风中路350号,49300,2.5,0.2,0,1.2,False,False,True,23.136874567676337,113.27606372631207
小石街小区,越秀-小北-小石街,60526,1.5,0.2,0,0.9,False,False,True,39.934451271209454,116.28479476676124
观绿路小区,越秀-西门口-观绿路11号,29800,1.5,0.2,1,1.0,False,False,True,23.124655722201815,113.2615215075686
山河大街大院,越秀-东山口-山河大街68号,87500,1.2,0.3,0,0.9,False,False,True,23.13526012014849,113.27342648099675
德安新街小区,越秀-东川-德安新街1-12号,43824,1.5,0.3,0,0.9,False,True,False,39.934451271209454,116.28479476676124
水荫路21号大院,越秀-水荫路-水荫路21-1号,45800,1.5,0.2,0,0.9,False,False,True,23.142683159330776,113.31588426209797
瓦窑街小区,越秀-东山口-瓦窑街,58500,1.2,0.2,0,0.5,False,False,True,23.130636503511905,113.30225669802445
东关汛小区,越秀-东川-中山三路东关汛,40907,1.5,0.2,0,0.9,False,False,True,23.131069543416817,113.28646170241717
马棚岗小区,越秀-东山口-马棚岗11号,52857,1.5,0.3,1,1.0,False,False,True,23.132105028154136,113.29880352181469
云泉新村,越秀-广园东-云泉路56号,28000,2.0,0.3,0,0.9,False,False,True,39.934451271209454,116.28479476676124
人民中路小区,"越秀-西门口-人民中路360号,362号",26200,1.5,0.2,0,0.9,False,False,True,23.12752724876285,113.26013506284495
六榕大厦,越秀-西门口-六榕路65号,50283,2.5,0.2,0,0.9,True,False,False,39.934451271209454,116.28479476676124
净慧街小区,越秀-西门口-净慧街1号,33529,1.2,0.3,0,0.5,True,False,False,39.934451271209454,116.28479476676124
伟超置业大厦,越秀-东川-启正上街15-19号,44400,2.5,0.18,1,1.2,False,False,True,23.128460980029644,113.28912598672834
文德路文化大楼,越秀-北京路-文德北路170-174号,54000,3.0,0.2,0,1.2,False,False,True,23.13103971588621,113.27799661027724
执信南竹丝村,越秀-农林下路-执信南路,56687,2.1,0.45,1,0.5,True,False,False,23.134395478706058,113.29847303521768
韫祥楼,越秀-农讲所-德政中路238号,38800,2.5,0.22,1,1.2,False,False,True,39.934451271209454,116.28479476676124
长兴直街小区,越秀-越秀南-长兴直街,38307,2.0,0.35,0,0.9,False,False,True,23.13526012014849,113.27342648099675
越秀北路422-424号,越秀-小北-越秀北路422-424号,52000,1.2,0.2,0,0.5,False,False,True,23.141858028490887,113.27994503492775
越秀北市委大院,越秀-小北-越秀北路249号,55000,1.2,0.3,1,0.5,False,False,True,39.934451271209454,116.28479476676124
署前一街小区,越秀-东山口-署前一街,46800,1.5,0.2,0,0.5,False,False,True,23.130636503511905,113.30225669802445
挞子大街小区,越秀-小北-挞子大街,53500,1.5,0.2,1,1.0,False,False,True,39.934451271209454,116.28479476676124
拾桂坊小区,越秀-农讲所-德政中路364号之1,38600,1.5,0.2,0,0.4,False,False,True,39.934451271209454,116.28479476676124
山河后街61号大院,越秀-东山口-山河后街61号,64500,1.2,0.23,0,0.7,False,False,True,23.13526012014849,113.27342648099675
淘金街11-27号小区,越秀-淘金-淘金街11-27号,50000,1.5,0.3,0,1.2,False,True,False,23.146878104219045,113.29340281925994
永泰东约,越秀-淘金-环市东路,40000,2.5,0.2,0,0.9,False,False,True,39.934451271209454,116.28479476676124
长庚门前街小区,越秀-东川-长庚门前街24号,42271,1.0,0.3,1,0.9,False,False,True,23.128919700732766,113.29546703549063
寺右二马路小区,越秀-五羊新城-寺右二马路33-39号,44600,0.5,0.3,0,0.5,False,False,True,23.12481633324246,113.316164533417
水均南街大院,越秀-东风东-水均南街,46400,1.5,0.3,0,0.5,False,False,True,23.13526012014849,113.27342648099675
远洋小北宿舍,越秀-小北-环市中路319号,42400,3.0,0.4,1,0.8,False,False,True,39.934451271209454,116.28479476676124
寺贝通津1号大院,越秀-东山口-寺贝通津1号,51392,1.5,0.2,1,0.9,False,False,True,23.128614191757748,113.30354352066708
圣安苑,越秀-流花-广园西路,16666,1.5,0.13,0,0.4,False,False,True,39.934451271209454,116.28479476676124
明华轩,越秀-五羊新城-寺右一马路20号,62418,2.3,0.3,0,1.7,False,False,True,23.126528619304782,113.31478159208483
新华楼,越秀-水荫路-天河路20号,79500,3.6,0.25,1,1.2,False,False,True,23.142224652402994,113.31822443778125
名品居,越秀-中山路-中山一路51号,48500,3.9,0.36,1,2.5,True,False,False,23.13376263436475,113.31633404366667
青菜岗38号大院,越秀-建设-青菜岗38号,44400,1.9,0.36,0,0.5,False,False,True,23.138361882493903,113.29305212078896
九星巷,越秀-解放北-百灵路,41439,2.0,0.35,1,0.8,False,False,True,23.13526012014849,113.27342648099675
均益大厦,越秀-东山口-东华东路543号,68263,5.6,0.2,1,1.5,False,False,True,23.127435188054136,113.29806861807721
龟岗大马路小区,越秀-东山口-龟岗大马路,56500,0.3,0.35,0,0.5,False,False,True,23.130636503511905,113.30225669802445
黄华路40大院,越秀-建设-黄华路40号,52871,1.2,0.2,0,0.5,False,False,True,39.934451271209454,116.28479476676124
教工新村,越秀-东山口-保安南街34-40号,61359,1.5,0.35,1,0.9,False,False,True,23.130636503511905,113.30225669802445
华光街小区,越秀-小北-应元路,53313,1.5,0.12,0,0.9,False,False,True,39.934451271209454,116.28479476676124
农林上路四横路大院,越秀-东山口-农林上路四横路,67500,2.0,0.4,0,1.8,False,False,True,23.133229321289917,113.30378139196604
麓苑路30号院,越秀-淘金-麓苑路30号,42600,1.2,0.3,0,1.1,False,True,False,39.934451271209454,116.28479476676124
梅东小区,越秀-东风东-梅东路北段58号,48500,2.2,0.4,0,0.5,False,False,True,23.139095397884795,113.31674888115104
麓苑路31号院,越秀-淘金-麓苑路31号,43000,1.2,0.2,1,1.5,False,False,True,39.934451271209454,116.28479476676124
高知老干楼,越秀-淘金-淘金路56号,48000,1.2,0.2,1,0.5,False,False,True,39.934451271209454,116.28479476676124
寺贝底侧,越秀-五羊新城-共和大街,54930,1.2,0.2,0,0.5,False,False,True,23.12608576017046,113.31711413217127
青菜岗8-24号大院,越秀-建设-青菜岗8-24号,47471,1.2,0.2,0,0.5,False,False,True,23.138974848743175,113.29172083202361
农林上路二横路大院,越秀-东山口-农林上路二横路,67581,1.0,0.4,0,2.5,False,False,True,23.131277089669638,113.30373306312961
仑园社区,越秀-东山口-庙前西街22号,54000,1.5,0.2,0,0.9,False,False,True,23.12845998298962,113.30029704455508
金地大厦,越秀-淘金-淘金横街3号,51463,2.65,0.42,1,0.9,False,False,True,39.934451271209454,116.28479476676124
麓湖居,越秀-小北-麓景西路,33800,1.3,0.4,1,0.5,False,False,True,39.934451271209454,116.28479476676124
梅东社区,越秀-农林下路-梅花路,56500,1.2,0.2,0,0.5,False,False,True,23.13746477660357,113.31532380929049
广信晖景大厦,越秀-五羊新城-广州大道中111-113号,47000,2.5,0.3,1,0.9,False,False,True,23.12608576017046,113.31711413217127
国利大厦,越秀-北京路-东园路36-38号,48776,1.6,0.25,1,1.5,False,False,True,23.123393510404807,113.28315548898881
华泉社区,越秀-流花-北站路6号,17500,1.2,0.3,1,0.5,True,False,False,23.13526012014849,113.27342648099675
广发花园,越秀-东风东-环市东路498号,40580,2.0,0.3,1,2.0,False,False,True,23.13526012014849,113.27342648099675
东山领汇广场,越秀-中山路-中山一路59-63号,79263,5.3,0.3,1,2.7,False,True,False,23.13283807965957,113.31461693268493
东环路1号大院,越秀-东风东-东环路1号,54500,2.0,0.26,1,0.4,False,False,True,23.13526012014849,113.27342648099675
东环路2号大院,越秀-东风东-东环路2号,49100,1.2,0.2,0,0.6,False,False,True,23.13526012014849,113.27342648099675
恒福西苑,越秀-淘金-恒福路252-272号,43600,2.6,0.4,1,0.9,False,False,True,39.934451271209454,116.28479476676124
法政路69号后座小区,越秀-小北-法政路69号,66079,1.2,0.3,1,0.5,False,True,False,39.934451271209454,116.28479476676124
都府居住小区,越秀-公园前-正南路4号,47910,2.36,0.17,1,2.0,False,False,True,23.146015283150646,113.2709261374411
德心轩,越秀-东山口-庙前西街15-9号,68500,2.0,0.3,1,0.9,False,True,False,23.12799178878304,113.29961783575922
福今路3号大院,越秀-东风东-福今路3号,59712,1.2,0.2,1,0.5,False,False,True,23.13526012014849,113.27342648099675
芳草街小区,越秀-农讲所-芳草街63号,41781,1.6,0.45,0,1.2,False,False,True,39.934451271209454,116.28479476676124
东八街小区,越秀-建设-东八街4-12号,57226,2.0,0.4,0,1.2,False,False,True,23.13526012014849,113.27342648099675
东川一街小区,越秀-东川-东川路,52631,2.5,0.3,0,0.8,False,False,True,23.13526012014849,113.27342648099675
稻谷仓小区,越秀-西门口-六榕路,41653,2.0,0.3,0,1.2,False,False,True,39.934451271209454,116.28479476676124
八旗二马路小区,越秀-北京路-八旗二马路50-100号,37662,2.0,0.2,0,1.2,False,False,True,23.122134194769963,113.28029582322928
安利大厦,越秀-东湖-大沙头二马路47号,48128,2.3,0.4,1,1.8,False,False,True,23.12436898157278,113.29142510984983
白云路小区,越秀-东川-白云路中段34号,42647,3.0,0.21,0,0.8,False,False,True,39.934451271209454,116.28479476676124
新裕大厦,越秀-农林下路-农林下路81号1,21000,3.8,0.2,1,2.0,False,False,True,23.136638034729362,113.3042460854062
共和苑2,越秀-共和路-共和路18号,61500,1.5,0.2,1,1.2,False,False,True,23.131223832235428,113.31407157141
华顺大厦,越秀-农讲所-豪贤路1号,43000,2.65,0.1,0,0.9,True,False,False,39.934451271209454,116.28479476676124
丽晶大厦,越秀-淘金-淘金路50号,42832,4.5,0.2,1,0.9,True,False,False,39.934451271209454,116.28479476676124
金悦东山国际公馆,越秀-黄花岗-永福路36号,43200,2.5,0.26,0,0.9,False,True,False,23.152672301414153,113.30720815799383
广梅汕铁路(梅花路)宿舍,越秀-杨箕-梅花路16号,58420,2.5,0.3,1,1.0,False,True,False,23.135376352386736,113.31560381111785
环市中路309号小区,越秀-小北-环市中路309号,41600,1.5,0.3,0,0.9,False,False,True,39.934451271209454,116.28479476676124
水荫路98-187号小区,越秀-水荫路-水荫路98-187号,24800,1.5,0.3,0,0.9,False,False,True,23.147478902168658,113.31964304184214
北京路小区,"越秀-北京路-北京路46,265,275,279号",40000,1.5,0.2,0,0.9,False,False,True,23.127361821938173,113.27553067182262
农林东路小区,越秀-东山口-农林东路26号,51000,1.5,0.2,0,0.9,False,False,True,23.13469449390632,113.30569370473505
纸行路小区,越秀-西门口-金紫坊3号,26000,2.15,0.25,0,0.9,False,False,True,23.13526012014849,113.27342648099675
杏花巷社区,越秀-西门口-杏花巷47号,28716,1.5,0.3,1,1.0,True,False,False,23.13097000750858,113.26058196983602
共和路35-37号小区,越秀-杨箕-共和路35-37号,56000,1.5,0.3,0,1.0,False,True,False,23.131434784723822,113.31372752039978
南坑东17号大院,越秀-小北-南坑东17号,32600,1.5,0.2,0,0.9,False,False,True,23.134983040027315,113.28421800474565
文德南路大院,越秀-北京路-文德南路,39789,1.5,0.2,0,0.9,False,False,True,23.12404858910803,113.27901052770603
环市东路467-505号楼,越秀-水荫路-环市东路467-505号,45600,2.5,0.3,0,0.9,False,True,False,23.14087670429621,113.30706011724583
共和三路小区,越秀-共和路-共和三路,61038,1.0,0.1,0,0.5,False,False,True,23.1317775091027,113.3119708839756
天字广场,越秀-解放南-沿江二路199-227号,49558,8.5,0.2,1,1.3,False,False,True,23.13526012014849,113.27342648099675
东山月府,越秀-五羊新城-寺右中街18号,89064,7.5,0.35,0,0.9,False,True,False,23.124151453785558,113.3154630466445
爱家园,越秀-越秀南-文德南路65号,54097,7.2,0.3,1,1.95,False,False,True,23.13526012014849,113.27342648099675
丽景台,越秀-五羊新城-东兴北路75-77号,64929,8.6,0.3,1,0.9,True,False,False,23.129312117129906,113.31863640068799
广东省气象局大院,越秀-东风东-福今路6号,65783,1.2,0.2,0,0.5,False,False,True,23.13526012014849,113.27342648099675
海谊百子大厦,越秀-东山口-百子横路3号,50995,2.5,0.3,0,1.3,False,False,True,23.13010857843028,113.29936972377745
东越雅居,越秀-北京路-越秀中路62号,69172,1.55,0.22,1,2.1,False,True,False,23.13105541896026,113.2852017391093
广怡大厦,越秀-建设-华乐路38号,81309,4.2,0.1,1,2.2,False,False,True,39.934451271209454,116.28479476676124
恒仕大厦,越秀-东川-永胜街50号,57504,4.8,0.33,1,1.5,False,False,True,23.12954301329863,113.28592325809468
华秀苑,越秀-流花-北站路35-41号,25931,1.5,0.3,1,1.1,False,False,True,23.13526012014849,113.27342648099675
仁康里,越秀-北京路-文明路,45630,2.0,0.32,0,1.5,True,False,False,23.128945457508387,113.27944360079225
泰康城文化广场,越秀-北京路-泰康路111号,46491,3.5,0.2,1,2.8,False,False,True,23.12310452361675,113.2739190219077
雅荷塘小区,越秀-农讲所-荣桂里,47600,2.5,0.2,0,0.4,False,False,True,23.13030790072174,113.28197987656827
金濠大厦,越秀-建设-黄华路,54063,2.5,0.15,1,0.85,False,False,True,39.934451271209454,116.28479476676124
