id,name,longitude,latitude,adname,中类,小类
B0FFJ4NEWK,广州医科大学附属中医医院(天河院区),113.38368480784698,23.144583607633663,天河区,综合医院,三级甲等医院
B0K6A7VIMJ,广州医科大学附属中医医院天河院区住院楼,113.38404659359568,23.14509520852782,天河区,综合医院,三级甲等医院
B0I6BOSEFX,广州医科大学附属第一医院(大坦沙院区)门诊,113.21475140067864,23.135967714516905,荔湾区,综合医院,三级甲等医院
B0HBT9513E,广州医科大学附属第一医院(大坦沙院区),113.2152649440993,23.135624393779565,荔湾区,综合医院,三级甲等医院
B0JKGM0I70,广州医科大学附属第一医院(大坦沙院区)医技住院综合楼,113.21424694145728,23.13506753481006,荔湾区,综合医院,三级甲等医院
B0JKGM3V3X,广州医科大学附属第一医院(大坦沙院区)急诊,113.21444816513517,23.13483784334031,荔湾区,综合医院,三级甲等医院
B0FFFONCNR,广州中医药大学第三附属医院院本部,113.21221586583611,23.07389657137936,荔湾区,综合医院,三级甲等医院
B0FFGKUQHK,广州中医药大学第三附属医院院本部住院部,113.21227094073116,23.07368472398491,荔湾区,综合医院,三级甲等医院
B00140ID2I,广州中医药大学第三附属医院芳村分院,113.20778702924224,23.11340172658529,荔湾区,综合医院,三级甲等医院
B00141TWV6,广州中医药大学第三附属医院芳村分院急诊,113.20782507473042,23.11342576504556,荔湾区,综合医院,三级甲等医院
B0FFFE15Q5,广州中医药大学第三附属医院院本部门诊部,113.2122849116175,23.07434945822644,荔湾区,综合医院,三级甲等医院
B00141SV4M,广州海军医院不孕不育医院诊疗基地,113.34410986850192,23.08002937298325,海珠区,综合医院,三级甲等医院
B0FFF42VPR,广州海军骨科诊疗中心,113.34411485968025,23.080024366451923,海珠区,综合医院,三级甲等医院
B0FFFEB590,广州中医药大学第三附属医院院本部急诊,113.21261828291608,23.07425987434561,荔湾区,综合医院,三级甲等医院
B0J1HU9XQ8,广州中医药大学第三附属医院院本部胸痛中心,113.2126603279982,23.07427091712137,荔湾区,综合医院,三级甲等医院
B0J0JHKE6G,广州中医药大学第三附属医院院本部创伤中心,113.21262228808608,23.074247883948587,荔湾区,综合医院,三级甲等医院
B0J0JHH73A,广州中医药大学第三附属医院院本部卒中中心,113.21264631346833,23.074259905975044,荔湾区,综合医院,三级甲等医院
B0IKRMH7MT,广州中医药大学第三附属医院院本部发热门诊,113.2126722925799,23.07499462406071,荔湾区,综合医院,三级甲等医院
B0FFGRCIPC,广州中医药大学第三附属医院芳村分院门诊,113.20776700228802,23.113433688008406,荔湾区,综合医院,三级甲等医院
B00140W66H,广州市第一人民医院(鹤洞分院),113.22793920087868,23.071175666608788,荔湾区,综合医院,三级甲等医院
B0FFF2XHKW,广州市第一人民医院鹤洞分院口腔门诊,113.22773610404164,23.07092964499646,荔湾区,综合医院,三级甲等医院
B0FFGRCMAC,广州市第一人民医院鹤洞分院住院部,113.2278491563939,23.071092646145942,荔湾区,综合医院,三级甲等医院
B0GR552V49,南部战区总医院(越秀院区)药学楼,113.24878136257382,23.14466918746024,越秀区,综合医院,三级甲等医院
B0FFK51V92,南部战区总医院(越秀院区)迎宾楼,113.24930316752204,23.14542979578868,越秀区,综合医院,三级甲等医院
B0H64AH2VU,南部战区总医院(越秀院区)人民楼,113.24927830555862,23.14347957286504,越秀区,综合医院,三级甲等医院
B0H0MAL31H,南部战区总医院(越秀院区)泌尿外科中心,113.25145850271552,23.144765575132883,越秀区,综合医院,三级甲等医院
B0J1BSKXMI,南部战区总医院(越秀院区)军人新冠用药门诊,113.2513095513563,23.144859576978977,越秀区,综合医院,三级甲等医院
B0H04DB6PF,南部战区总医院(越秀院区)神经外科中心,113.2514085308474,23.144622644933,越秀区,综合医院,三级甲等医院
B00141JPRS,广东省皮肤病医院,113.27292875847826,23.144075751574977,越秀区,综合医院,三级甲等医院
B00140W7UV,中山大学中山眼科中心(区庄院区),113.28744402729885,23.1357689600456,越秀区,综合医院,三级甲等医院
B00141VGDN,中山大学中山眼科中心(区庄院区)眼科急诊,113.28746298166644,23.13599384250203,越秀区,综合医院,三级甲等医院
B0FFGZQ624,中山大学中山眼科中心(区庄院区)门诊部,113.2874949342348,23.135935819436863,越秀区,综合医院,三级甲等医院
B00140US87,中山大学中山眼科中心(区庄院区)视光学门诊部,113.28801204957936,23.13667577020445,越秀区,综合医院,三级甲等医院
B0FFGRKQCJ,中山大学中山眼科中心(区庄院区)1号楼住院部,113.28708462692964,23.135412621752053,越秀区,综合医院,三级甲等医院
B0FFGOI4AJ,武警广东省总队医院体检中心,113.32753352365827,23.165699068713728,天河区,综合医院,三级甲等医院
B00141KAB8,武警广东省总队医院,113.32664935504648,23.16541086511434,天河区,综合医院,三级甲等医院
B0FFFT9ZP2,武警广东省总队医院疾病预防控制科,113.32755547661588,23.165730015006407,天河区,综合医院,三级甲等医院
B0FFHEZMCT,武警广东省总队医院放射治疗中心,113.32751953067172,23.166015973626195,天河区,综合医院,三级甲等医院
B00141VKOJ,武警广东省总队医院门诊部,113.32646970975968,23.16561412979146,天河区,综合医院,三级甲等医院
B0FFLMJRA1,武警广东省总队医院胸痛中心,113.32646374477886,23.16528026951456,天河区,综合医院,三级甲等医院
B0FFFEY21B,武警广东省总队医院中药房,113.32687287425318,23.16573931249663,天河区,综合医院,三级甲等医院
B0FFK51V8Z,南部战区总医院(越秀院区)5号楼住院部,113.25098765562892,23.14503059084205,越秀区,综合医院,三级甲等医院
B0JDNZBFQE,南部战区总医院(越秀院区)门诊部,113.2508718160178,23.1432473259302,越秀区,综合医院,三级甲等医院
B0FFLHBO26,南部战区总医院(越秀院区)胸痛中心,113.251366634372,23.143311175772528,越秀区,综合医院,三级甲等医院
B0JDBMGQP6,南部战区总医院急诊,113.25130465778794,23.14330119587288,越秀区,综合医院,三级甲等医院
B0J3ZCZ6SJ,南部战区总医院(越秀院区)卒中中心,113.25138062941627,23.143308173298795,越秀区,综合医院,三级甲等医院
B00141RGH5,南部战区总医院(越秀院区),113.24952911168116,23.14528281150198,越秀区,综合医院,三级甲等医院
B0FFK51V9D,南部战区总医院(越秀院区)口腔科,113.25035989867489,23.14459691035106,越秀区,综合医院,三级甲等医院
B0FFGTH86W,武警广东省总队医院急诊,113.32650066819556,23.165292194461948,天河区,综合医院,三级甲等医院
B0HKD5XF7Y,南部战区总医院(越秀院区)体检中心,113.24970105676074,23.145335756959177,越秀区,综合医院,三级甲等医院
B0FFHEZNYS,武警广东省总队医院外科大楼,113.32693471801188,23.166171028729245,天河区,综合医院,三级甲等医院
B0FFGRFDTW,武警广东省总队医院住院部,113.32695467785004,23.16615999490273,天河区,综合医院,三级甲等医院
B0FFK2F286,南部战区总医院(越秀院区)神经医学专科医院,113.25016003356572,23.143553367859905,越秀区,综合医院,三级甲等医院
B0H0AHV3GP,武警广东省总队医院发热门诊,113.32649065961024,23.16571904949087,天河区,综合医院,三级甲等医院
B00141X7JC,武警广东省总队医院口腔科,113.32635096824995,23.165397439722025,天河区,综合医院,三级甲等医院
B0FFK51NZE,南部战区总医院(越秀院区)骨科医院,113.2495121974724,23.14407929134392,越秀区,综合医院,三级甲等医院
B0FFHN1ZPC,武警广东省总队医院耳鼻咽喉头颈外科,113.32556863377977,23.16454226290425,天河区,综合医院,三级甲等医院
B0FFFEY1W7,武警广东省总队医院青少年成瘾治疗中心,113.3254229388638,23.164461572400903,天河区,综合医院,三级甲等医院
B0FFLO9MKZ,武警广东省总队医院外三科,113.32541495895524,23.164407608429403,天河区,综合医院,三级甲等医院
B0FFG238O4,中山大学附属第六医院(北院区)生殖中心,113.31930512565928,23.156107512124635,天河区,综合医院,三级甲等医院
B0FFFR8ST6,中山大学附属第六医院(北院区),113.31963244628513,23.156166863777404,天河区,综合医院,三级甲等医院
B0FFK7SNX9,中山大学附属第六医院(北院区)影像检验中心,113.31946580636318,23.155928275134176,天河区,综合医院,三级甲等医院
B0G39NK15D,中山大学附属第六医院(北院区)康健影像检验中心,113.31943786557216,23.155905337447443,天河区,综合医院,三级甲等医院
B0FFG24GPB,中山大学附属第六医院(北院区)体检,113.319564586502,23.15616399453585,天河区,综合医院,三级甲等医院
B0H3ZHEEVA,广州市第一人民医院(院本部)门诊,113.25292860968273,23.13439427909712,越秀区,综合医院,三级甲等医院
B00141SWJ6,广州市第一人民医院(院本部)急诊,113.25288362783832,23.13441128664739,越秀区,综合医院,三级甲等医院
B0FFKZDVP9,广州市第一人民医院(院本部)体检楼,113.25272467102975,23.13477419125857,越秀区,综合医院,三级甲等医院
B0FFFP3E6A,广州市第一人民医院(院本部)发热门诊,113.25288061080973,23.134684178135046,越秀区,综合医院,三级甲等医院
B0FFM7XAT5,广州市第一人民医院(院本部)妇产科,113.25287762483768,23.13449425527221,越秀区,综合医院,三级甲等医院
B0H1CH3JI9,广州市第一人民医院(院本部)胸痛中心,113.25294660214328,23.13439127453176,越秀区,综合医院,三级甲等医院
B0FFF2K810,广州市第一人民医院(院本部)广州市临床重症救治中心,113.2528726289208,23.13446526849224,越秀区,综合医院,三级甲等医院
B0FFGSJZKB,广州市第一人民医院(院本部)广州市临床重症救治中心急诊,113.25288363260078,23.134340315122927,越秀区,综合医院,三级甲等医院
B0FFM5HW3K,广州市第一人民医院(院本部)宫内疾病诊断中心,113.2528326425005,23.13451726033124,越秀区,综合医院,三级甲等医院
B0FFGRKQCK,中山大学中山眼科中心(区庄院区)3号楼住院部,113.28797710754304,23.136655829273675,越秀区,综合医院,三级甲等医院
B00140HAHN,广州市第一人民医院(院本部)英东门诊医疗中心,113.25272373000898,23.133901541715847,越秀区,综合医院,三级甲等医院
B0FFF3UWBL,广州市第一人民医院(院本部)英东门诊,113.25272373000898,23.133901541715847,越秀区,综合医院,三级甲等医院
B0FFK2CGXW,广州市第一人民医院体检中心,113.25266975365754,23.1338875641512,越秀区,综合医院,三级甲等医院
B00140KFHA,中山大学肿瘤防治中心(越秀院区),113.28478532288408,23.134009425858245,越秀区,综合医院,三级甲等医院
B0FFG1NLMR,南方医科大学第三附属医院第二门诊部,113.28360987791208,23.13742266128188,越秀区,综合医院,三级甲等医院
B0H377C6U4,中山大学肿瘤防治中心(越秀院区)1号楼住院部,113.2858077305451,23.13413595081834,越秀区,综合医院,三级甲等医院
B0FFGRF5JD,中山大学肿瘤防治中心(越秀院区)门诊,113.28563301337712,23.13398525665239,越秀区,综合医院,三级甲等医院
B00141VG9Q,中山大学肿瘤防治中心(越秀院区)3号楼放射治疗中心,113.28532448634088,23.134081649223155,越秀区,综合医院,三级甲等医院
B0FFGRF5JC,中山大学肿瘤防治中心(越秀院区)急诊,113.28562003178048,23.13401226400505,越秀区,综合医院,三级甲等医院
B00140BGSM,广州市第一人民医院(院本部)超声聚焦刀肿瘤治疗中心,113.25273070290952,23.13426139509315,越秀区,综合医院,三级甲等医院
B0J3YACPA7,广州市第一人民医院(院本部)英东楼,113.25274370741596,23.13411245079705,越秀区,综合医院,三级甲等医院
B0FFGQ6FJT,广州市第一人民医院(院本部)住院部,113.2526387734842,23.133785614691355,越秀区,综合医院,三级甲等医院
B00140UENM,广州市第一人民医院(院本部),113.25120632522946,23.133891976700017,越秀区,综合医院,三级甲等医院
B00141SWAR,广州市第一人民医院(院本部)内科大楼,113.25179510701858,23.13386682980668,越秀区,综合医院,三级甲等医院
B0FFFHJ4EV,广州市第一人民医院(院本部)广州消化疾病中心,113.25168915236485,23.1337958875066,越秀区,综合医院,三级甲等医院
B00140TZO5,广州市第一人民医院(院本部)神经外科中心,113.25137127836108,23.13369301392551,越秀区,综合医院,三级甲等医院
B00140U89D,南方医科大学第三附属医院,113.35731672859464,23.13709472494966,天河区,综合医院,三级甲等医院
B00141WSQ8,广州市第一人民医院(院本部)外科大楼,113.2509614170118,23.133827064209427,越秀区,综合医院,三级甲等医院
B0FFF3UWLW,广州市第一人民医院(院本部)友谊楼,113.25121831022244,23.13405090983301,越秀区,综合医院,三级甲等医院
B0FFGE8P6Z,南方医科大学第三附属医院发热门诊,113.3576841964056,23.136800313169907,天河区,综合医院,三级甲等医院
B0H3UC8K7U,南方医科大学第三附属医院门诊楼,113.35742159824316,23.136690735085963,天河区,综合医院,三级甲等医院
B00141TWG3,南方医科大学第三附属医院急诊,113.35753439469428,23.137185374583066,天河区,综合医院,三级甲等医院
B0FFG1QP3M,南方医科大学第三附属医院肠道门诊,113.3576082878264,23.1371262918636,天河区,综合医院,三级甲等医院
B0FFHGF302,广州医学院附属肿瘤医院医技影像大楼,113.28695686877398,23.14965714762092,越秀区,综合医院,三级甲等医院
B0FFLLABKV,广州医科大学附属肿瘤医院医技影像楼,113.28730930430672,23.14967463304979,越秀区,综合医院,三级甲等医院
B0FFGXM8R2,中山大学肿瘤防治中心(越秀院区)2号楼放射治疗中心,113.28438693338536,23.13399297992488,越秀区,综合医院,三级甲等医院
B0FFGRF5JE,中山大学肿瘤防治中心(越秀院区)2号楼住院部,113.2845057465836,23.13407478425306,越秀区,综合医院,三级甲等医院
B0FFK57YDJ,南部战区空军医院门诊,113.30714533029833,23.13419797295373,越秀区,综合医院,三级甲等医院
B00141JLXX,南部战区空军医院,113.30788982834072,23.134543476277862,越秀区,综合医院,三级甲等医院
B0FFK58MI4,南部战区空军医院妇产科,113.30709143423084,23.134240054115303,越秀区,综合医院,三级甲等医院
B0FFLK998P,南方医科大学第三附属医院卒中中心,113.35751042618186,23.137251382712616,天河区,综合医院,三级甲等医院
B0FFLN9BYS,南部战区空军医院住院部,113.30727110004123,23.13391685687405,越秀区,综合医院,三级甲等医院
B00141SWBG,南方医科大学第三附属医院急危重症医学部,113.35753238865986,23.137317324705315,天河区,综合医院,三级甲等医院
B0FFK522JQ,南部战区空军医院耳鼻喉科,113.30716229843644,23.13417195252189,越秀区,综合医院,三级甲等医院
B001423D4C,南部战区空军医院康复医学科,113.30714933172564,23.13406002105712,越秀区,综合医院,三级甲等医院
B0FFKCYWVO,南方医科大学第三附属医院胸痛中心,113.35747847633644,23.137220441134684,天河区,综合医院,三级甲等医院
B0FFIB8SE5,南方医科大学第三附属医院眼科医学验光矫正中心,113.35726283680673,23.13670295964912,天河区,综合医院,三级甲等医院
B0FFK58MHY,南部战区空军医院急诊科,113.30752061026328,23.1338374340046,越秀区,综合医院,三级甲等医院
B00141SW1Q,广州市第一人民医院(院本部)影像楼,113.2511613794255,23.133326215364487,越秀区,综合医院,三级甲等医院
B00141SW3E,南方医科大学第三附属医院体检中心,113.35708205924304,23.13744792375236,天河区,综合医院,三级甲等医院
B0FFHQAB1U,南方医科大学第三附属医院儿科,113.35732669327514,23.13739059222365,天河区,综合医院,三级甲等医院
B0GRC6DAJT,广州市第一人民医院(院本部)外科门诊,113.25084645762988,23.133821094668207,越秀区,综合医院,三级甲等医院
B0FFH11UZG,南方医科大学第三附属医院-治安联防办公室,113.3574594776997,23.13761730985481,天河区,综合医院,三级甲等医院
B0J3YACPA8,广州市第一人民医院(院本部)供应楼,113.2507354788477,23.13407601894594,越秀区,综合医院,三级甲等医院
B0FFKEF2MU,南方医科大学第三附属医院消化内镜中心,113.35729674373928,23.137313666292084,天河区,综合医院,三级甲等医院
B0FFF3UWLY,广州市第一人民医院(院本部)消毒供应中心,113.25066150626948,23.13404404926101,越秀区,综合医院,三级甲等医院
B0J3OAPEH3,南方医科大学第三附属医院骨科大楼住院部,113.35739456191502,23.137814324790742,天河区,综合医院,三级甲等医院
B0FFHJV0RT,南方医科大学第三附属医院医学影像科,113.35708505408736,23.137456915808613,天河区,综合医院,三级甲等医院
B0FFF2W9M5,广州市第一人民医院(院本部)康复治疗部,113.25047858259803,23.133824179872207,越秀区,综合医院,三级甲等医院
B0FFF3UWLZ,广州市第一人民医院(院本部)高压氧舱治疗中心,113.250119679346,23.134125138459524,越秀区,综合医院,三级甲等医院
B0FFIPTQ5V,广州市第一人民医院(院本部)神经科大楼,113.24979780449166,23.133758352768524,越秀区,综合医院,三级甲等医院
B00141SWOW,广东省第二中医院(越秀院区)体检中心,113.28027218344889,23.14555776917636,越秀区,综合医院,三级甲等医院
B00140BESS,广东省第二中医院(越秀院区),113.27998157874084,23.145733063010383,越秀区,综合医院,三级甲等医院
B0FFGIOEUR,广东省第二中医院(越秀院区)外科楼,113.28036005614511,23.14561263717064,越秀区,综合医院,三级甲等医院
B0FFGIOD4V,广东省第二中医院药学部,113.2806536268518,23.145830181009885,越秀区,综合医院,三级甲等医院
B0FFGECY7Z,广东省第二中医院(越秀院区)2号住院部,113.28038202541067,23.14560961075673,越秀区,综合医院,三级甲等医院
B0FFHGE6X2,广东省第二中医院行政办公区,113.2801573489993,23.14549293863087,越秀区,综合医院,三级甲等医院
B0FFGECY80,广东省第二中医院(越秀院区)3号住院部,113.27991865906252,23.14584409740496,越秀区,综合医院,三级甲等医院
B0FFGIOEEU,广东省第二中医院(越秀院区)科技楼,113.27998656860382,23.14578003821557,越秀区,综合医院,三级甲等医院
B0JBOZIWRA,广东省第二人民医院专家医院,113.31272000223348,23.136010936813044,天河区,综合医院,三级甲等医院
B0FFK58P2M,南部战区空军医院急救中心,113.30747969036186,23.13385450178232,越秀区,综合医院,三级甲等医院
B0FFK566XJ,南部战区空军医院血管瘤科,113.30731601151292,23.13390877831557,越秀区,综合医院,三级甲等医院
B0FFK58MHS,南部战区空军医院肿瘤科(二区),113.30819520649445,23.134743837005733,越秀区,综合医院,三级甲等医院
B0FFG1MT71,南方医科大学第三附属医院内科楼,113.3579156259207,23.140076673236024,天河区,综合医院,三级甲等医院
B0FFG21SZ2,南方医科大学第三附属医院外科楼,113.3586265507191,23.14041352915017,天河区,综合医院,三级甲等医院
B0FFGZ16LA,南方医科大学第三附属医院药剂科,113.35835896140954,23.14017300348473,天河区,综合医院,三级甲等医院
B0FFG1SL1A,南方医科大学第三附属医院住院部,113.35862655249912,23.14038753949949,天河区,综合医院,三级甲等医院
B0FFH2AXJX,广东省第二中医院(越秀院区)康复楼,113.27973093117896,23.1456833939223,越秀区,综合医院,三级甲等医院
B0FFGECY7Y,广东省第二中医院(越秀院区)门诊部,113.27932346968936,23.14605274993636,越秀区,综合医院,三级甲等医院
B00141TWHD,广东省第二中医院(越秀院区)急诊,113.27955515017368,23.14604946635245,越秀区,综合医院,三级甲等医院
B00141TX9V,广东省第二中医院(越秀院区)1号住院部,113.27940735304136,23.14606864069029,越秀区,综合医院,三级甲等医院
B0FFGIOEZT,广东省第二中医院(越秀院区)住院部,113.27937040282974,23.146085679334583,越秀区,综合医院,三级甲等医院
B0FFH2CAH1,广东省第二中医院(越秀院区)科技楼感染性疾病科,113.279315498927,23.14578186682527,越秀区,综合医院,三级甲等医院
B0FFF2T2TW,广州医科大学附属第三医院荔湾院区急诊,113.22885646171424,23.11944008958529,荔湾区,综合医院,三级甲等医院
B0FFFEBHYP,广州医科大学附属第三医院荔湾院区门诊大楼,113.22905655080284,23.119650119991803,荔湾区,综合医院,三级甲等医院
B0HDTRMIMK,广州医科大学附属第三医院荔湾院区整形美容科,113.22879141968224,23.11956200179072,荔湾区,综合医院,三级甲等医院
B00140I6VS,广州医科大学附属第三医院荔湾院区,113.22885038882328,23.120480661669017,荔湾区,综合医院,三级甲等医院
B0FFH5SN0S,广州医科大学附属第三医院门诊部,113.2290875649816,23.11967512765596,荔湾区,综合医院,三级甲等医院
B0FFIB8UO5,广州医科大学附属第三医院荔湾院区肠道门诊,113.22870136516865,23.11967190401695,荔湾区,综合医院,三级甲等医院
B00141VFS0,广州医科大学附属第三医院荔湾院区住院部,113.22866230972542,23.12019266858188,荔湾区,综合医院,三级甲等医院
B0IUUL74IU,广州医科大学附属第三医院荔湾院区体检中心,113.22908155963708,23.11970911033628,荔湾区,综合医院,三级甲等医院
B0FFF0EMKE,广州医科大学附属第三医院荔湾院区口腔科,113.22875535474972,23.120249700150023,荔湾区,综合医院,三级甲等医院
B0IKRMFEJB,广州医科大学附属第三医院荔湾院区发热门诊,113.22889545313016,23.119869936964086,荔湾区,综合医院,三级甲等医院
B0J2OAGLVN,广州医科大学附属第三医院荔湾院区耳鼻喉门诊,113.22907654541916,23.11988303650523,荔湾区,综合医院,三级甲等医院
B0JGH6PM0I,广州医科大学附属第三医院荔湾院区艾滋病自愿咨询检测门诊,113.22878435851942,23.12041964789369,荔湾区,综合医院,三级甲等医院
B00141S1JO,广州医科大学附属第一医院(交运院区),113.2550357158597,23.11801815443257,越秀区,综合医院,三级甲等医院
B0FFGEM1KF,广州医科大学附属第三医院荔湾院区老住院楼,113.22917656994754,23.12027693330799,荔湾区,综合医院,三级甲等医院
B0FFH11BTN,广州医科大学附属第三医院荔湾院区药剂科,113.22867928007128,23.120768443919943,荔湾区,综合医院,三级甲等医院
B0FFH1280C,广州医科大学附属第三医院荔湾院区消毒供应中心,113.22872830373824,23.12079946017464,荔湾区,综合医院,三级甲等医院
B0J15PS0BC,广州医科大学附属第三医院荔湾院区谭兆楼神经外科,113.22897343833458,23.12069164727784,荔湾区,综合医院,三级甲等医院
B0FFH11DS6,广州医科大学附属第三医院荔湾院区教学楼,113.2295467256778,23.12071596371404,荔湾区,综合医院,三级甲等医院
B0FFH0P7HL,广州医科大学附属第三医院荔湾院区行政办公楼,113.22928658250768,23.120918734482736,荔湾区,综合医院,三级甲等医院
B0FFH5S3S2,广州医科大学附属第三医院荔湾院区临床营养科,113.22944866427576,23.1209078305595,荔湾区,综合医院,三级甲等医院
B00140H3M7,广东省中医院芳村医院,113.22165407324076,23.0997710685475,荔湾区,综合医院,三级甲等医院
B0FFF5O98W,广东省中医院芳村医院急诊,113.22198331058438,23.100056223715743,荔湾区,综合医院,三级甲等医院
B0FFFVKB9Z,广东省中医院芳村医院门诊,113.22177016289304,23.099789157963823,荔湾区,综合医院,三级甲等医院
B00141SW5T,广东省中医院芳村医院功能检查科,113.22176916184384,23.09979315546768,荔湾区,综合医院,三级甲等医院
B0FFGG8BFC,广东省中医院芳村医院1号住院部,113.22189328322928,23.099423412376083,荔湾区,综合医院,三级甲等医院
B0IKRMF6Q9,广东省中医院芳村医院发热门诊,113.2217401358234,23.09984311050086,荔湾区,综合医院,三级甲等医院
B00141TXDX,广东省中医院芳村医院2号住院部,113.2213497941881,23.100347572630287,荔湾区,综合医院,三级甲等医院
B0IRYOH6KJ,南部战区空军医院体检部,113.30928101500682,23.135049718800847,越秀区,综合医院,三级甲等医院
B0FFI2OIB6,广东药科大学附属第一医院共和院区,113.29851639818162,23.12700704844093,越秀区,综合医院,三级甲等医院
B00141IEZ3,广东药科大学附属第一医院共和院区门诊部,113.29862519593524,23.12701686059384,越秀区,综合医院,三级甲等医院
B0FFHFUIBV,广东药科大学附属第一医院,113.29869507136854,23.12694277238307,越秀区,综合医院,三级甲等医院
B0FFK57YDQ,南部战区空军医院高低压氧中心,113.30942574072596,23.13481454619679,越秀区,综合医院,三级甲等医院
B0FFJ1TSBT,广州市红十字会医院体检,113.25626472327684,23.10808171776021,海珠区,综合医院,三级甲等医院
B0FFGU7RRH,广州市红十字会医院门诊,113.2563636763601,23.107951727219746,海珠区,综合医院,三级甲等医院
B0J1OHEG8U,广州市红十字会医院急诊,113.25688637201652,23.10801346219929,海珠区,综合医院,三级甲等医院
B0FFH6S6H2,广州市红十字会医院整形激光美肤中心,113.25630169596198,23.10817966085389,海珠区,综合医院,三级甲等医院
B0FFK57YDH,南部战区空军医院全军肝病中心,113.3092921057196,23.133385366483484,越秀区,综合医院,三级甲等医院
B0FFK58OS1,南部战区空军医院康复楼,113.30899264915706,23.13421758388165,越秀区,综合医院,三级甲等医院
B00141SV1C,广州医科大学附属第一医院(沿江路总院),113.25679693294236,23.115333492515614,越秀区,综合医院,三级甲等医院
B0FFFE29PA,广州医科大学附属第一医院(沿江路总院)6号住院部,113.256572039756,23.115674456342106,越秀区,综合医院,三级甲等医院
B0FFFOR21G,广州医科大学附属第一医院(沿江路总院)门诊部,113.25706480502508,23.11489954463373,越秀区,综合医院,三级甲等医院
B00141TW9H,广州医科大学附属第一医院(沿江路总院)急诊,113.25678297499304,23.11482770636976,越秀区,综合医院,三级甲等医院
B0FFGDK68V,广州医科大学附属第一医院(沿江路总院)体检中心,113.25721371693064,23.11489347604568,越秀区,综合医院,三级甲等医院
B0H105VYC3,广州医科大学附属第一医院(沿江路总院)医技楼,113.25680394040836,23.115161559739096,越秀区,综合医院,三级甲等医院
B0K6JZUG3U,广东省人民医院血液净化中心,113.27713615192044,23.12014677063912,越秀区,综合医院,三级甲等医院
B00140ATOJ,广东省中医院二沙岛医院,113.29802517462493,23.1141601138471,越秀区,综合医院,三级甲等医院
B0FFFGTPMW,广东省中医院二沙岛医院急诊,113.29809107837652,23.11378715620401,越秀区,综合医院,三级甲等医院
B0FFG9ISKS,广东省中医院二沙岛医院门诊楼,113.2979153907053,23.11395438263511,越秀区,综合医院,三级甲等医院
B00140APBO,广州市红十字会医院,113.25700634326977,23.107392662168174,海珠区,综合医院,三级甲等医院
B0FFF5H6HC,广州市红十字会医院口腔科,113.25630970158994,23.108028719590763,海珠区,综合医院,三级甲等医院
B0IK9ZWJU2,广州市红十字会医院发热门诊,113.25618577416488,23.10798079443552,海珠区,综合医院,三级甲等医院
B0FFGU7RRI,广州市红十字会医院6号住院楼,113.25717123085587,23.107612492976,海珠区,综合医院,三级甲等医院
B0FFGU7RRJ,广州市红十字会医院7号住院楼,113.2565835900505,23.107374865911027,海珠区,综合医院,三级甲等医院
B0FFGU7RRK,广州市红十字会医院8号住院楼,113.25698537573238,23.10709279595495,海珠区,综合医院,三级甲等医院
B0FFH6T73P,广州市红十字会医院内科大楼,113.25661962886952,23.106488215854142,海珠区,综合医院,三级甲等医院
B0FFGU7RRL,广州市红十字会医院9号住院楼,113.2567365634858,23.1064581744584,海珠区,综合医院,三级甲等医院
B0FFK57YDL,南部战区空军医院传染病中心,113.30871518097514,23.13455995676084,越秀区,综合医院,三级甲等医院
B0FFK58MI5,南部战区空军医院第二住院部,113.3090266594158,23.133062985098817,越秀区,综合医院,三级甲等医院
B0FFF6AT7W,南部战区空军医院肝病生物治疗中心,113.30880310611086,23.133072392599782,越秀区,综合医院,三级甲等医院
B0FFK58MI6,南部战区空军医院感染病科,113.3088560011339,23.133060300195503,越秀区,综合医院,三级甲等医院
B0J19H4I9U,南部战区空军医院全军肝病防治中心,113.30888394875356,23.13300826970905,越秀区,综合医院,三级甲等医院
B0FFK57YDK,南部战区空军医院肝肾综合症诊治中心,113.30901867451972,23.133075994568507,越秀区,综合医院,三级甲等医院
B00140W7RP,广东省人民医院惠福分院,113.25253051928632,23.12334486610381,越秀区,综合医院,三级甲等医院
B00140AMUW,广东省人民医院惠福分院西门诊部,113.2526474691125,23.123366821207448,越秀区,综合医院,三级甲等医院
B00140K93F,广州医科大学附属第一医院(海印院区),113.28342849271928,23.10267507408901,海珠区,综合医院,三级甲等医院
B00141SV6Q,广州医科大学附属第一医院(沿江路总院)泌尿内科,113.25707380734724,23.11478558709409,越秀区,综合医院,三级甲等医院
B0FFGEKYC4,广州医科大学附属第一医院(沿江路总院)1号住院部,113.25693288243978,23.114903605251587,越秀区,综合医院,三级甲等医院
B0FFG7CF7T,广东省中医院二沙岛医院住院部,113.2985122571652,23.114423185370395,越秀区,综合医院,三级甲等医院
B0I63PVQXL,广州医科大学附属第一医院(沿江路总院)发热门诊,113.25663506297872,23.11478979016578,越秀区,综合医院,三级甲等医院
B0FFKC92YS,广州医科大学附属第一医院(沿江路总院)胸痛中心,113.25662107638026,23.114709829372103,越秀区,综合医院,三级甲等医院
B00140382F,暨南大学附属第一医院,113.34507777308018,23.12872354641733,天河区,综合医院,三级甲等医院
B0FFGEO6SQ,暨南大学附属第一医院广州华侨医院门诊楼,113.34503684548535,23.12875260490592,天河区,综合医院,三级甲等医院
B0FFG1SVYM,暨南大学附属第一医院门诊,113.34492904315758,23.128729799243622,天河区,综合医院,三级甲等医院
B00141SVQ0,暨南大学附属第一医院急诊,113.34533830609496,23.12863913415832,天河区,综合医院,三级甲等医院
B0FFGT49HU,暨南大学第一附属医院医学验配中心,113.3450428427878,23.12863264308525,天河区,综合医院,三级甲等医院
B00141VKNG,暨南大学附属第一医院英东楼,113.34513267198469,23.128743444220564,天河区,综合医院,三级甲等医院
B0FFGZI8IG,暨南大学附属第一医院广州华侨医院角膜塑形镜验配中心,113.34484819878334,23.12860698783176,天河区,综合医院,三级甲等医院
B0FFHPIS01,暨南大学附属第一医院肿瘤放射治疗中心,113.34549501879368,23.128691844946,天河区,综合医院,三级甲等医院
B00141VFYV,暨南大学附属第一医院发热门诊,113.34463756191008,23.128915225890093,天河区,综合医院,三级甲等医院
B0FFG55IUV,暨南大学附属第一医院放疗楼,113.3455948352966,23.12873665642425,天河区,综合医院,三级甲等医院
B0FFFEW4XA,暨南大学附属第一医院伽玛刀中心,113.345819422384,23.1288492281644,天河区,综合医院,三级甲等医院
B00141WSJ6,暨南大学附属第一医院宗汉楼,113.3458992778166,23.128860087894207,天河区,综合医院,三级甲等医院
B0JBACEM0D,暨南大学附属第一医院诊疗楼,113.34523246542368,23.12911512306029,天河区,综合医院,三级甲等医院
B0FFFEW75N,暨南大学附属第一医院医技楼,113.34525542391972,23.129113084563667,天河区,综合医院,三级甲等医院
B0FFG9J4SX,中山大学孙逸仙纪念医院北院区健康体检中心,113.25107383669264,23.112072879586457,越秀区,综合医院,三级甲等医院
B0FFJCIZY7,暨南大学附属第一医院体检中心,113.34559779125208,23.129302422861844,天河区,综合医院,三级甲等医院
B0FFHPISGN,暨南大学附属第一医院睡眠医学中心,113.34485113982088,23.129390666230883,天河区,综合医院,三级甲等医院
B0FFHK2I0R,暨南大学附属第一医院综合楼,113.34486511695827,23.129352657544032,天河区,综合医院,三级甲等医院
B0FFFCX7GZ,暨南大学附属第一医院住院楼,113.34500982111808,23.12982721738396,天河区,综合医院,三级甲等医院
B0FFGRCKP1,广州医科大学附属第一医院(海印院区)门诊,113.28333163345174,23.102736178669844,海珠区,综合医院,三级甲等医院
B0FFHKEAFV,广州医科大学附属第一医院(海印院区)肿瘤血液中心,113.28331566108233,23.10268022329001,海珠区,综合医院,三级甲等医院
B001423QGE,广州医科大学附属第一医院(海印院区)微创外科中心,113.28331165622062,23.10284116187852,海珠区,综合医院,三级甲等医院
B0FFGRCKP2,广州医科大学附属第一医院(海印院区)住院部,113.28334761321112,23.1026821796572,海珠区,综合医院,三级甲等医院
B00140NUN1,中山大学附属第六医院(院本部),113.35863488521883,23.120771434856604,天河区,综合医院,三级甲等医院
B0FFI75I57,中山大学附属第六医院(院本部)急诊,113.35830641218234,23.12014515508649,天河区,综合医院,三级甲等医院
B00141SW1O,中山大学附属第六医院(院本部)门诊,113.35847413544286,23.120570743799785,天河区,综合医院,三级甲等医院
B0FFFVM8L3,中山大学附属第六医院(院本部)住院,113.35851008154025,23.12058468726521,天河区,综合医院,三级甲等医院
B0J3ZCVDYZ,中山大学附属第六医院(院本部)卒中中心,113.3582884407454,23.120116192417896,天河区,综合医院,三级甲等医院
B0JGU1GHR7,中山大学附属第六医院(院本部)胸痛中心,113.35825548833698,23.12013323227761,天河区,综合医院,三级甲等医院
B0HATYYN3B,中山大学附属第六医院(院本部)甲状腺疾病诊疗中心,113.35861891956093,23.120612522167416,天河区,综合医院,三级甲等医院
B0FFH3TURK,中山大学孙逸仙纪念医院北院区,113.2505650017265,23.11223993344296,越秀区,综合医院,三级甲等医院
B0FFFEW4W7,暨南大学附属第一医院高压氧楼,113.34558081665286,23.1293794207403,天河区,综合医院,三级甲等医院
B0FFGZI8JS,暨南大学附属第一医院广州华侨医院会客厅,113.34518752289983,23.129467057953025,天河区,综合医院,三级甲等医院
B00141SWRR,中山大学孙逸仙纪念医院北院区门诊部,113.250566033354,23.111763129288,越秀区,综合医院,三级甲等医院
B0FFGZI8LE,暨南大学附属第一医院高压氧治疗中心,113.34555286299566,23.129440443817632,天河区,综合医院,三级甲等医院
B0FFHPIQXY,暨南大学附属第一医院广州华侨医院制剂室,113.3444897394171,23.13026993399756,天河区,综合医院,三级甲等医院
B0FFFEW757,暨南大学附属第一医院制剂楼,113.34476523014636,23.13035942312025,天河区,综合医院,三级甲等医院
B00141VFXB,中山大学孙逸仙纪念医院北院区中山楼住院部,113.25088389114296,23.112259849598544,越秀区,综合医院,三级甲等医院
B0FFFEW4WF,暨南大学附属第一医院后勤楼,113.34540606569108,23.130359323851387,天河区,综合医院,三级甲等医院
B0FFFEW4WS,暨南大学附属第一医院广州华侨医院洗涤中心,113.344993811874,23.130388018644787,天河区,综合医院,三级甲等医院
B0FFH5AUZ9,中山大学孙逸仙纪念医院北院区中山楼,113.25083890465328,23.11229184734898,越秀区,综合医院,三级甲等医院
B0FFH5AUZL,中山大学孙逸仙纪念医院北院区博济楼,113.2506389684346,23.11236386528556,越秀区,综合医院,三级甲等医院
B0FFFFHF5X,中山大学孙逸仙纪念医院北院区博济楼住院部,113.2506659587962,23.11237085608167,越秀区,综合医院,三级甲等医院
B0FFFPKB7M,中国人民解放军陆军第七十四集团军医院,113.32980150754882,23.098095926732093,海珠区,综合医院,三级甲等医院
B00141SWKM,中国人民解放军陆军第七十四集团军医院急诊,113.32977057350308,23.098050004460383,海珠区,综合医院,三级甲等医院
B00141SVXU,中国人民解放军陆军第七十四集团军医院门诊,113.32972366795872,23.09806208828311,海珠区,综合医院,三级甲等医院
B0FFGE2GNL,广东省中医院(大德路总院)东区门诊,113.25136418073755,23.12028444254773,越秀区,综合医院,三级甲等医院
B0FFHNSQTN,广东省第二人民医院(琶洲院区)国际医学中心,113.32901310554782,23.09817538862394,海珠区,综合医院,三级甲等医院
B00140U136,广东省中医院(大德路总院),113.25122519709622,23.120797269465456,越秀区,综合医院,三级甲等医院
B0FFGRFDTV,中国人民解放军陆军第七十四集团军医院住院部,113.3298194835027,23.097912968919907,海珠区,综合医院,三级甲等医院
B0I6A75AHE,中山大学附属第六医院(院本部)日间手术中心,113.35863488521883,23.120771434856604,天河区,综合医院,三级甲等医院
B0FFIC8RIV,广东省中医院(大德路总院)急诊胸痛中心,113.25146415307388,23.12014547289324,越秀区,综合医院,三级甲等医院
B0FFFAFWHL,广东省中医院(大德路总院)西区门诊,113.25108928643002,23.12019454964604,越秀区,综合医院,三级甲等医院
B00140CJUY,广东省第二人民医院(琶洲院区)保健医疗中心,113.32905103002506,23.09815032707651,海珠区,综合医院,三级甲等医院
B0HGNYKJM8,中山大学附属第六医院(院本部)内科门诊,113.35822147936544,23.12099892765256,天河区,综合医院,三级甲等医院
B0FFH0AEWV,广东省中医院(大德路总院)东区门诊楼肝病专家门诊,113.25162708524324,23.12024538843536,越秀区,综合医院,三级甲等医院
B0IKRMHUJ7,中山大学附属第六医院(院本部)发热门诊,113.35826741157106,23.120995863618216,天河区,综合医院,三级甲等医院
B0FFHHZ41S,中山大学附属第六医院(院本部)感染性疾病科,113.35821648778668,23.12098394085819,天河区,综合医院,三级甲等医院
B0FFG1RYLF,广东省中医院(大德路总院)北区检查楼,113.2513561536474,23.120732262085298,越秀区,综合医院,三级甲等医院
B0FFH0AEZI,广东省中医院(大德路总院)东区门诊楼口腔科,113.25150813714602,23.12013846405005,越秀区,综合医院,三级甲等医院
B0FFH0AF1K,广东省中医院(大德路总院)东区门诊楼儿科6室小儿推拿门诊,113.25155610361892,23.120370356645715,越秀区,综合医院,三级甲等医院
B0HBKHON42,南方医科大学珠江医院儿科急诊,113.2620765092496,23.08286303708956,海珠区,综合医院,三级甲等医院
B0HG6UE03T,南方医科大学珠江医院小儿外科,113.26180169863188,23.08322406416469,海珠区,综合医院,三级甲等医院
B0FFFGYP8D,南方医科大学珠江医院体检中心,113.26288383558054,23.08330730772055,海珠区,综合医院,三级甲等医院
B00141SW3F,南方医科大学珠江医院谊侨楼,113.26280688478892,23.083504277413656,海珠区,综合医院,三级甲等医院
B001423SIA,南方医科大学珠江医院住院部,113.26316856903948,23.083808899654155,海珠区,综合医院,三级甲等医院
B0FFIVOBHL,南方医科大学珠江医院健康管理中心,113.26289982399211,23.0832863055978,海珠区,综合医院,三级甲等医院
B00140C1IU,南方医科大学珠江医院,113.26360620924294,23.083748616999472,海珠区,综合医院,三级甲等医院
B0FFI0YNSI,南方医科大学珠江医院放疗中心,113.2627919145412,23.08324139839516,海珠区,综合医院,三级甲等医院
B0FFH5AVM6,中山大学孙逸仙纪念医院北院区岭南楼,113.25047404099612,23.112108008562764,越秀区,综合医院,三级甲等医院
B00141VFT0,中山大学孙逸仙纪念医院北院区急诊,113.25022708024136,23.112729808055807,越秀区,综合医院,三级甲等医院
B0FFKCJ50T,中山大学孙逸仙纪念医院北院区肠道门诊,113.25025310105316,23.11229398149993,越秀区,综合医院,三级甲等医院
B0JG6CJO5P,中山医科大学孙逸仙纪念医院北院-中心注射室,113.2503300597891,23.11253586506865,越秀区,综合医院,三级甲等医院
B0I63MW7GG,中山大学孙逸仙纪念医院北院区发热门诊,113.2502450746267,23.11272680535296,越秀区,综合医院,三级甲等医院
B0FFFGTI4M,广州医科大学附属第二医院(院本部)急诊,113.27248177706294,23.09207144439772,海珠区,综合医院,三级甲等医院
B0HDGRNAQH,广州医科大学附属第二医院(院本部)医疗整形美容,113.27255270800974,23.091878453195104,海珠区,综合医院,三级甲等医院
B0I2C7EGO6,广州医科大学附属第二医院(院本部)贵宾区体检中心,113.27242682309095,23.092330391675688,海珠区,综合医院,三级甲等医院
B0FFFE1NVT,广州医科大学附属第二医院(院本部)门诊部,113.27213510527524,23.0931163566942,海珠区,综合医院,三级甲等医院
B00140SIO1,广州医科大学附属第二医院(院本部)医疗美容门诊部,113.27256769274344,23.091847450944066,海珠区,综合医院,三级甲等医院
B0FFGE96M2,广州医科大学附属第二医院(院本部)新住院大楼,113.27253470647048,23.09221133212629,海珠区,综合医院,三级甲等医院
B0FFGAPQSZ,广州医科大学附属第二医院-北楼,113.27242181797968,23.09249232896692,海珠区,综合医院,三级甲等医院
B00140UGDV,广州医科大学附属第二医院(院本部),113.2732688244946,23.092561431266176,海珠区,综合医院,三级甲等医院
B0FFGXMCND,广州医科大学附属第二医院(院本部)住院部,113.27288228269792,23.09250285513516,海珠区,综合医院,三级甲等医院
B0J3DAC57M,广东省中医院(大德路总院)东区门诊楼妇科门诊,113.25145114825088,23.120289417639675,越秀区,综合医院,三级甲等医院
B00141QW6J,广东省中医院(大德路总院)研修楼,113.251412065565,23.12173783780929,越秀区,综合医院,三级甲等医院
B0FFH0AEU5,广东省中医院(大德路总院)东区门诊楼儿科发热门诊,113.25139216821049,23.12031742176851,越秀区,综合医院,三级甲等医院
B0FFH0AEZ0,广东省中医院(大德路总院)东区门诊楼针灸7室&腹针门诊,113.25140016445324,23.12032941477824,越秀区,综合医院,三级甲等医院
B0FFH0AEUH,广东省中医院(大德路总院)东区门诊楼内科发热门诊,113.25138217022209,23.120342414200582,越秀区,综合医院,三级甲等医院
B0FFH0AEWO,广东省中医院(大德路总院)东区门诊楼简易门诊,113.25137917092536,23.120348412540853,越秀区,综合医院,三级甲等医院
B0FFGELOGS,广东省中医院(大德路总院)住院部,113.25083136540968,23.12037054138072,越秀区,综合医院,三级甲等医院
B0HKALMLDB,广东省中医院(大德路总院)颈椎病诊疗中心,113.25136012147452,23.121190074506124,越秀区,综合医院,三级甲等医院
B0J1HUESLK,广东省第二人民医院(琶洲院区)高级医学中心健康管理体检中心,113.32900812155052,23.098089433896952,海珠区,综合医院,三级甲等医院
B00141TWFW,南方医科大学珠江医院门诊部,113.263985853544,23.08426012885437,海珠区,综合医院,三级甲等医院
B0FFFVX867,南方医科大学珠江医院医学验光配镜中心,113.26351426755618,23.08402756479396,海珠区,综合医院,三级甲等医院
B0H2XRFJ1B,南方医科大学珠江医院北区,113.26360620924294,23.083748616999472,海珠区,综合医院,三级甲等医院
B0FFM6QVW5,南方医科大学珠江医院南区临床技能中心,113.26403587150196,23.083355473583264,海珠区,综合医院,三级甲等医院
B0FFHSGVY8,南方医科大学珠江医院整形美容中心,113.2640058391614,23.084220131197743,海珠区,综合医院,三级甲等医院
B00141TW7H,广东省第二人民医院(琶洲院区)门诊部,113.32828762595518,23.0975700193562,海珠区,综合医院,三级甲等医院
B00140JG50,广东省第二人民医院(琶洲院区),113.32834753539548,23.09710409968026,海珠区,综合医院,三级甲等医院
B0FFJ31NY8,广东省第二人民医院(琶洲院区)体检中心,113.32799622738504,23.097476612646894,海珠区,综合医院,三级甲等医院
B0JGPCJGBC,广东省第二人民医院(琶洲院区)胸痛中心,113.32831157272405,23.09763394717009,海珠区,综合医院,三级甲等医院
B00141TWQS,广东省第二人民医院(琶洲院区)急诊,113.3280620894482,23.0975264665374,海珠区,综合医院,三级甲等医院
B00141TW7U,广东省第二人民医院(琶洲院区)放疗科,113.3287846283652,23.097333173482653,海珠区,综合医院,三级甲等医院
B0FFK9SB2J,广东省第二人民医院(琶洲院区)发热门诊,113.328004200822,23.09762753456314,海珠区,综合医院,三级甲等医院
B00141TWEG,广东省第二人民医院核医学科,113.32886048006604,23.097241067822925,海珠区,综合医院,三级甲等医院
B00141WMRE,广东省第二人民医院(琶洲院区)住院部,113.32830062643532,23.097173160084736,海珠区,综合医院,三级甲等医院
B0FFGCAZIV,广东省第二人民医院后勤仓库,113.32886048957448,23.09710112615677,海珠区,综合医院,三级甲等医院
B0J3G7CFTF,广州医科大学附属第二医院(院本部)何善衡脑科大楼,113.27295222016606,23.09221590333725,海珠区,综合医院,三级甲等医院
B0FFJCL4Q4,广州医科大学附属第二医院(院本部)体检,113.2732688244946,23.092561431266176,海珠区,综合医院,三级甲等医院
B0HKLLVVID,广州医科大学附属第二医院(院本部)新门诊综合楼,113.2724857025931,23.0931120049818,海珠区,综合医院,三级甲等医院
B0FFF2NSOM,广州医科大学附属第二医院(院本部)肠道门诊,113.27267148851966,23.09309482320853,海珠区,综合医院,三级甲等医院
B0FFF2EZQ4,广州医科大学附属第二医院(院本部)感染门诊,113.27269645930292,23.093097796482088,海珠区,综合医院,三级甲等医院
B0FFF0ADSM,广州医科大学附属第二医院(院本部)发热门诊,113.27266649546102,23.093077835407502,海珠区,综合医院,三级甲等医院
B0FFFD3LO5,广州医科大学附属第二医院(院本部)国际妇产中心,113.27253763355093,23.09324589627392,海珠区,综合医院,三级甲等医院
B0FFF2COB7,广州医科大学附属第二医院(院本部)行政办公楼,113.27325380675951,23.09308922604915,海珠区,综合医院,三级甲等医院
B0FFF2FHCD,广州医科大学附属第二医院(院本部)老住院部大楼,113.27318791750028,23.092598499741623,海珠区,综合医院,三级甲等医院
B0FFF2Q9VN,广州医科大学附属第二医院(院本部)核医学科,113.2733507067322,23.092872216012506,海珠区,综合医院,三级甲等医院
B0FFH62F09,广州医科大学附属第二医院(院本部)放射治疗科,113.2735444827851,23.09278005205415,海珠区,综合医院,三级甲等医院
B0FFH0UACD,广东省中医院(大德路总院)西区门诊楼呼吸疑难病诊治门诊,113.2507793884812,23.120294584842984,越秀区,综合医院,三级甲等医院
B0FFH0UAGL,广东省中医院(大德路总院)西区门诊楼客楼,113.25064243352112,23.120321606250982,越秀区,综合医院,三级甲等医院
B0FFH0UACL,广东省中医院(大德路总院)西区门诊楼呼吸系统疑难病多学科会诊中心,113.25071341657356,23.12021363356097,越秀区,综合医院,三级甲等医院
B0FFH0UABD,广东省中医院(大德路总院)西区门诊楼妇科门诊,113.25066044047924,23.12012668151559,越秀区,综合医院,三级甲等医院
B0H2A772GD,广东省中医院(大德路总院)言语吞咽诊疗中心,113.251412065565,23.12173783780929,越秀区,综合医院,三级甲等医院
B00141TX5C,广东省人民医院惠福分院体检中心,113.25227262945984,23.12327497201875,越秀区,综合医院,三级甲等医院
B00141TWXX,广东省人民医院惠福分院住院部,113.25265347705994,23.123210882724784,越秀区,综合医院,三级甲等医院
B0I22B89JF,广东省中医院(大德路总院)介入中心,113.25134508924332,23.121752849244764,越秀区,综合医院,三级甲等医院
B0FFF8MT5G,广东省第二人民医院3号楼,113.3280082552068,23.09670691072444,海珠区,综合医院,三级甲等医院
B0FFHKDZNG,广东省第二人民医院(琶洲院区)感染科,113.3276839167758,23.096726519968666,海珠区,综合医院,三级甲等医院
B0FFHKDZRE,广东省第二人民医院(琶洲院区)皮肤性病科,113.32767793044472,23.09670554011987,海珠区,综合医院,三级甲等医院
B0FFHKDZQC,广东省第二人民医院(琶洲院区)康复医学科,113.32769788983892,23.09670250337825,海珠区,综合医院,三级甲等医院
B0FFF8MT5H,广东省第二人民医院5号楼住院部,113.3276529822066,23.096694592197416,海珠区,综合医院,三级甲等医院
B0FFLMCXEA,南方医科大学珠江医院急诊,113.2650030370616,23.083204817584424,海珠区,综合医院,三级甲等医院
B00140BO4D,南方医科大学珠江医院南区,113.26467931651364,23.083310017738768,海珠区,综合医院,三级甲等医院
B0FFK2NLCZ,南方医科大学珠江医院胸痛中心,113.26504699819466,23.083199786220387,海珠区,综合医院,三级甲等医院
B0FFF2FW51,广州医科大学第二附属医院(学术会议中心),113.27369527971597,23.0931237498366,海珠区,综合医院,三级甲等医院
B0FFH62EXI,广州医科大学附属第二医院(院本部)营养科,113.27349152201938,23.093133959468936,海珠区,综合医院,三级甲等医院
B0FFGAPR6C,广州医科大学附属第二医院(院本部)高级医疗服务大楼,113.27398096608192,23.09268663056504,海珠区,综合医院,三级甲等医院
B00141VRYH,广州医科大学附属第二医院(院本部)高级医疗中心,113.2740658686645,23.09261157167756,海珠区,综合医院,三级甲等医院
B0FFF2NV6O,广州医科大学附属第二医院(院本部)眼科住院部,113.27399495486192,23.092602650844693,海珠区,综合医院,三级甲等医院
B0FFH62EZW,广州医科大学附属第二医院(院本部)临床技能中心,113.27396595044333,23.09318843657929,海珠区,综合医院,三级甲等医院
B0FFH62FAW,广州医科大学附属第二医院(院本部)后勤管理中心楼,113.27405783898524,23.0931973351655,海珠区,综合医院,三级甲等医院
B0G3LDGVQC,南方医科大学中西医结合医院急诊,113.33038073522562,23.09218230053773,海珠区,综合医院,三级甲等医院
B00140MGLH,南方医科大学中西医结合医院门诊部,113.3309496247904,23.09158047799247,海珠区,综合医院,三级甲等医院
B0FFF4FL7V,南方医科大学中西医结合医院肿瘤中心,113.33031085912906,23.092442323813444,海珠区,综合医院,三级甲等医院
B0IRC174WY,南方医科大学中西医结合医院门诊楼,113.33090771177034,23.09154757087437,海珠区,综合医院,三级甲等医院
B0H2NCHDS7,南方医科大学中西医结合肿瘤中心技术协作门诊,113.33093765300798,23.0915215252782,海珠区,综合医院,三级甲等医院
B0FFH4TLPO,南方医科大学中西医结合医院(加州)心脏影像中心,113.3304435761952,23.09264798680639,海珠区,综合医院,三级甲等医院
B00141X2Q9,南方医科大学中西医结合医院健康管理中心,113.33140863532137,23.09249722866264,海珠区,综合医院,三级甲等医院
B0FFFFUFUZ,南方医科大学中西医结合医院感染性疾病科,113.33104944632764,23.091238432946184,海珠区,综合医院,三级甲等医院
B00141WXBY,南方医科大学中西医结合医院传统疗法与康复医学中心,113.3302898698156,23.09291016771325,海珠区,综合医院,三级甲等医院
B0FFH4TKO5,南方医科大学中西医结合医院医学影像中心,113.33028887190632,23.09290917001798,海珠区,综合医院,三级甲等医院
B00140W5WL,南方医科大学中西医结合医院,113.33159322751732,23.093018662811065,海珠区,综合医院,三级甲等医院
B0FFLOCRW5,南方医科大学中西医结合医院中医治未病与健康管理中心,113.33037669243475,23.09293099482037,海珠区,综合医院,三级甲等医院
B0IK9AYS84,南方医科大学中西医结合医院发热门诊,113.33137071007184,23.092523289209147,海珠区,综合医院,三级甲等医院
B0I325MB5Q,南方医科大学珠江医院胎儿医学与产前诊断科,113.26468131187544,23.0833529981336,海珠区,综合医院,三级甲等医院
B0HBTG0X7B,南方医科大学珠江医院发热门诊,113.2641167022446,23.08484578712532,海珠区,综合医院,三级甲等医院
B0FFGAMPT2,南方医科大学中西医结合医院第一住院楼,113.33067606299436,23.0932712867139,海珠区,综合医院,三级甲等医院
B0FFGBD2FN,南方医科大学中西医结合医院行政楼,113.33155728642592,23.09321764723402,海珠区,综合医院,三级甲等医院
B0FFH3QEP6,南方医科大学中西医结合医院药学楼,113.33224293833204,23.09274455585789,海珠区,综合医院,三级甲等医院
B0FFHKLBJ6,中国人民解放军陆军第七十四集团军医院感染内科,113.32913118962288,23.09340915415109,海珠区,综合医院,三级甲等医院
B0FFH4T7HF,南方医科大学中西医结合医院第三教学楼,113.33080176883296,23.093855804877872,海珠区,综合医院,三级甲等医院
B0H02HEZCJ,南方医科大学中西医结合医院肿瘤中心住院部,113.33124588134754,23.093708028823027,海珠区,综合医院,三级甲等医院
B0FFH3QB3X,南方医科大学中西医结合医院17号楼,113.33224889483196,23.093207351037417,海珠区,综合医院,三级甲等医院
B0FFH3QB3T,南方医科大学中西医结合医院设备科,113.33208621733642,23.093274628475925,海珠区,综合医院,三级甲等医院
B0FFH4TII8,南方医科大学中西医结合医院教室楼,113.33102132248185,23.093891375640744,海珠区,综合医院,三级甲等医院
B00141TQZK,南方医科大学中西医结合医院第4教学楼,113.33079575546758,23.094230659524825,海珠区,综合医院,三级甲等医院
B0FFG1LZ4F,中国人民解放军第七十四集团军医院-外科大楼,113.32993549996289,23.0942122937214,海珠区,综合医院,三级甲等医院
B00141WUBE,中国人民解放军陆军第七十四集团军医院肿瘤诊疗大楼,113.3290882342617,23.0940379727294,海珠区,综合医院,三级甲等医院
B0FFHKLC47,南方医科大学中西医结合医院营养科,113.33131771027412,23.09409073343127,海珠区,综合医院,三级甲等医院
B0FFGI0DUM,南方医科大学中西医结合医院科教楼,113.33084563945852,23.09445247264313,海珠区,综合医院,三级甲等医院
B0FFF6Y1XL,中国人民解放军陆军第七十四集团军医院骨科,113.32973488687637,23.094512548173785,海珠区,综合医院,三级甲等医院
B0FFG1PK4G,中国人民解放军陆军第七十四集团军医院内科楼,113.33008613230427,23.095122628222203,海珠区,综合医院,三级甲等医院
B0FFHKLC0G,中国人民解放军陆军第七十四集团军医院康复病区,113.32927479244988,23.094950237514947,海珠区,综合医院,三级甲等医院
B0J2RZHF2E,广东省第二人民医院9号楼,113.3275772368458,23.095229348041887,海珠区,综合医院,三级甲等医院
B0FFGPHHRL,广州中医药大学第三附属医院骨伤科医院,113.2648233273029,23.096156522302884,海珠区,综合医院,三级甲等医院
B0FFGRDIY5,广州中医药大学第三附属医院骨伤科医院住院部,113.26480134800931,23.096137546798133,海珠区,综合医院,三级甲等医院
B0FFGRDIY6,广州中医药大学第三附属医院骨伤科医院急诊,113.26474839709788,23.096102601247743,海珠区,综合医院,三级甲等医院
B0FFFP0KHM,广州医科大学附属第二医院西院区,113.2652442290871,23.077124200613405,海珠区,综合医院,三级甲等医院
B00141R9VG,广州医科大学附属第二医院西院区口腔科,113.2653940874092,23.07722004437845,海珠区,综合医院,三级甲等医院
B0IK9AWJRN,广州医科大学附属第二医院西院区发热门诊,113.26523924142025,23.077007253932667,海珠区,综合医院,三级甲等医院
B0FFL0DDUX,广州医科大学附属第二医院西院区药学门诊,113.26511534581417,23.07710830620232,海珠区,综合医院,三级甲等医院
B00141WOEW,广州医科大学附属第二医院西院区急诊,113.26511433679237,23.07725624438313,海珠区,综合医院,三级甲等医院
B0FFG9J3IG,广州医科大学附属第二医院西院区预防接种门诊,113.2649185253487,23.077047481792256,海珠区,综合医院,三级甲等医院
B0FFGSRR97,暨南大学附属第一医院(东圃院区),113.39501525901083,23.12747988534072,天河区,综合医院,三级甲等医院
B0FFFNAD71,暨南大学附属第一医院(东圃院区)体检中心,113.39478524936428,23.12754187831167,天河区,综合医院,三级甲等医院
B0FFK2ZC7A,暨南大学附属第一医院(东圃院区)门诊部,113.39498925538862,23.12752187028165,天河区,综合医院,三级甲等医院
B00141X0KZ,暨南大学附属第一医院(东圃院区)急诊,113.3951622616726,23.127510862483227,天河区,综合医院,三级甲等医院
B0FFG7FK13,暨南大学附属第一医院(东圃院区)肝病(脂肪肝)中心,113.39513526208738,23.127490872395608,天河区,综合医院,三级甲等医院
B0FFGV3C4Z,暨南大学附属第一医院(东圃院区)第二门诊部,113.39507026136695,23.12746988541191,天河区,综合医院,三级甲等医院
B0I6JR2IFD,暨南大学附属第一医院(东圃院区)消化内镜中心,113.39517426368953,23.12748787098235,天河区,综合医院,三级甲等医院
B0H2CZUATY,中山大学附属第三医院(天河院区)2号楼住院部,113.33518403506874,23.13725782645613,天河区,综合医院,三级甲等医院
B0FFHMWFV5,中山大学附属第三医院(天河院区)整形美容科,113.33502634836378,23.137241125300022,天河区,综合医院,三级甲等医院
B0J3A5O1GG,中山大学附属第三医院(天河院区)发热门诊,113.33511617018696,23.1372459569142,天河区,综合医院,三级甲等医院
B0FFF5UY3V,中山大学附属第三医院(天河院区),113.33575394587794,23.136723986168075,天河区,综合医院,三级甲等医院
B0FFFZE1LS,中山大学附属第三医院(天河院区)科学楼,113.3354436639889,23.13517517993817,天河区,综合医院,三级甲等医院
B0FFG1K3TH,中山大学附属第三医院(天河院区)泌尿外科,113.33541566360395,23.13599090481722,天河区,综合医院,三级甲等医院
B00141TWQ3,中山大学附属第三医院(天河院区)7号楼住院部,113.33514516535963,23.13647621119406,天河区,综合医院,三级甲等医院
B0FFFRHNQL,中山大学附属第三医院远洋院区,113.33651128409338,23.139246583042283,天河区,综合医院,三级甲等医院
B0FFGJR0RI,中山大学肝脏病医院,113.33500341405842,23.13694428655217,天河区,综合医院,三级甲等医院
B0FFKZME4O,中山大学附属第三医院(天河院区)门诊部,113.3360453228944,23.137442161379106,天河区,综合医院,三级甲等医院
B0J3A5JMFI,中山大学附属第三医院(天河院区)肝病楼住院部,113.33516708342164,23.137040944601527,天河区,综合医院,三级甲等医院
B0FFFDQDD0,中山大学附属第三医院(天河院区)皮肤科,113.33591757532992,23.13742840242878,天河区,综合医院,三级甲等医院
B0FFH11EH7,中山大学附属第三医院(天河院区)体检中心,113.3365752629509,23.13771907541353,天河区,综合医院,三级甲等医院
B0J3A5EZV4,中山大学附属第三医院(天河院区)精神心理科门诊,113.33624492935232,23.13745678783268,天河区,综合医院,三级甲等医院
B00140BR2E,广东药科大学附属第一医院(农林院区),113.29023784445796,23.12980121731837,越秀区,综合医院,三级甲等医院
B0FFFER0GL,广东药科大学附属第一医院(农林院区)门诊部,113.29032169818096,23.12988505625996,越秀区,综合医院,三级甲等医院
B00141SVV0,广东药科大学附属第一医院(农林院区)核医学科,113.2897276985656,23.12976700157878,越秀区,综合医院,三级甲等医院
B00141SVUH,广东药科大学附属第一医院(农林院区)住院大楼,113.28982155705089,23.12954894829769,越秀区,综合医院,三级甲等医院
B00141SVZR,广东药科大学附属第一医院(农林院区)皮肤科,113.2903326771257,23.12992402386685,越秀区,综合医院,三级甲等医院
B0FFGXYR20,广东药科大学附属第一医院(农林院区)肿瘤科,113.2903326771257,23.12992402386685,越秀区,综合医院,三级甲等医院
B00141SWA9,广东药科大学附属第一医院(农林院区)检验科,113.2903326771257,23.12992402386685,越秀区,综合医院,三级甲等医院
B0FFH98KDX,广东药科大学附属第一医院(农林院区)妇产科门诊,113.29033267759756,23.129917026689363,越秀区,综合医院,三级甲等医院
B00141IF55,广东省人民医院急诊,113.282106706137,23.12849624463742,越秀区,综合医院,三级甲等医院
B0FFG1MUB5,广东药科大学附属第一医院(农林院区)药学楼,113.28942323931136,23.12924267010559,越秀区,综合医院,三级甲等医院
B0G2PDGO5C,第一医院药学楼,113.28956699472953,23.129335417215167,越秀区,综合医院,三级甲等医院
B0FFHOKNLO,广东药科大学附属第一医院(农林院区)配镜中心,113.29040658207695,23.12949408509312,越秀区,综合医院,三级甲等医院
B0FFFYY1FA,广东省人民医院东川门诊部,113.281602443712,23.12841593220456,越秀区,综合医院,三级甲等医院
B0GK7R3BHH,广东药科大学附属第一医院(农林院区)口腔医学中心,113.29072002890643,23.1298704555353,越秀区,综合医院,三级甲等医院
B0HBLCBICO,广东药科大学附属第一医院(农林院区)口腔楼,113.29088972541696,23.130119095672203,越秀区,综合医院,三级甲等医院
B0JDOCGR9J,广东药科大学附属第一医院(农林院区)广东省狂犬病暴露预防处置门诊,113.29100550707795,23.13044978483271,越秀区,综合医院,三级甲等医院
B0FFH1279X,广东省人民医院急救中心,113.28205977088618,23.12855128367264,越秀区,综合医院,三级甲等医院
B0FFLM77A0,广东药科大学附属第一医院(农林院区)门诊B区,113.290946623876,23.130196977082253,越秀区,综合医院,三级甲等医院
B0FFGX9IGL,广东药科大学附属第一医院(农林院区)体检部,113.2909825483296,23.1304148341418,越秀区,综合医院,三级甲等医院
B0HUJR1KB6,广东药科大学附属第一医院(农林院区)急诊科,113.29102446988402,23.130524725520104,越秀区,综合医院,三级甲等医院
B00140C3F3,广东省人民医院东病区,113.2835457410562,23.12605432437984,越秀区,综合医院,三级甲等医院
B0FFG1RZPE,广东省人民医院东病区办公楼,113.28268000616468,23.12639933963301,越秀区,综合医院,三级甲等医院
B00141TXEM,广东省人民医院英东楼,113.281522641779,23.12718653246014,越秀区,综合医院,三级甲等医院
B0FFING0YX,广州市妇女儿童医疗中心(妇婴院区),113.24905151784009,23.12636447510901,越秀区,综合医院,三级甲等医院
B0FFH11L09,中山大学附属第三医院(天河院区)综合楼,113.33682377648452,23.1377126217064,天河区,综合医院,三级甲等医院
B00141R1T9,中山大学附属第三医院(天河院区)急诊,113.33686867849704,23.13786048024369,天河区,综合医院,三级甲等医院
B0JG95CNTB,中山大学附属第三医院(天河院区)脑病中心,113.33658228305336,23.137223260751394,天河区,综合医院,三级甲等医院
B0J3A5OWD4,中山大学附属第三医院(天河院区)综合楼住院部,113.33691659001384,23.13778342317412,天河区,综合医院,三级甲等医院
B0FFGE8LR9,广东省人民医院住院部,113.28200487742252,23.12815751442385,越秀区,综合医院,三级甲等医院
B00140UERJ,广东省人民医院,113.281918031682,23.12774379481421,越秀区,综合医院,三级甲等医院
B0FFH0AGTZ,广东省人民医院门诊住院楼耳鼻喉科(头颈肿瘤外科)504,113.28210570981494,23.12846325926964,越秀区,综合医院,三级甲等医院
B0FFH0AGLD,广东省人民医院门诊住院楼乳腺科403,113.28208074542452,23.12847528700865,越秀区,综合医院,三级甲等医院
B0FFH0AGLE,广东省人民医院门诊住院楼乳腺科406-2,113.28215563901271,23.12843220656684,越秀区,综合医院,三级甲等医院
B0FFH0AGPZ,广东省人民医院门诊住院楼肺科405,113.28213067452384,23.128446233532763,越秀区,综合医院,三级甲等医院
B0FFH0AGQH,广东省人民医院门诊住院楼肺科406-1,113.2821426597205,23.12840623403368,越秀区,综合医院,三级甲等医院
B0FFH0AGTT,广东省人民医院门诊住院楼耳鼻喉科505,113.28213167293144,23.12844823142046,越秀区,综合医院,三级甲等医院
B00141TX4T,广东省人民医院门诊住院楼,113.28194597002948,23.128055632346246,越秀区,综合医院,三级甲等医院
B0FFH0AGJG,广东省人民医院门诊住院楼烧伤与创面修复外科311,113.28191399058228,23.12844051836985,越秀区,综合医院,三级甲等医院
B0FFH0AGKH,广东省人民医院门诊住院楼骨科307,113.28180115650072,23.1284096774324,越秀区,综合医院,三级甲等医院
B0FFH0AGKN,广东省人民医院门诊住院楼骨科门诊307,113.28182911540134,23.12841763792333,越秀区,综合医院,三级甲等医院
B0FFH0AGPQ,广东省人民医院门诊住院楼临床听力中心,113.28195693103544,23.12839747988093,越秀区,综合医院,三级甲等医院
B0FFH0AGO9,广东省人民医院门诊住院楼正骨科423,113.2820587851288,23.128361361716586,越秀区,综合医院,三级甲等医院
B0FFH0AGO5,广东省人民医院门诊住院楼正骨科421,113.28202883201672,23.12831342016799,越秀区,综合医院,三级甲等医院
B0FFH0AGLI,广东省人民医院门诊住院楼中医科408,113.28220257998838,23.12829020255323,越秀区,综合医院,三级甲等医院
B0FFH0AGNW,广东省人民医院门诊住院楼正骨科422,113.28204181175566,23.12833339516517,越秀区,综合医院,三级甲等医院
B0FFFEAZM6,广东省人民医院科教楼,113.28150363750818,23.127656366855167,越秀区,综合医院,三级甲等医院
B00141SWQH,广东药科大学附属第一医院(农林院区)整形美容科,113.29100650181354,23.130502761945284,越秀区,综合医院,三级甲等医院
B0JKGMVED6,广东药科大学附属第一医院(农林院区)房颤中心,113.29095259775868,23.1304338723866,越秀区,综合医院,三级甲等医院
B0JKGM277N,广东药科大学附属第一医院(农林院区)胸痛中心,113.29097555800644,23.130446831958785,越秀区,综合医院,三级甲等医院
B0JRS683YR,广东药科大学附属第一医院(农林院区)卒中中心,113.29107438102363,23.130587623540325,越秀区,综合医院,三级甲等医院
B0FFH0AGUZ,广东省人民医院门诊住院楼护理部,113.28202983224436,23.12828842896572,越秀区,综合医院,三级甲等医院
B0FFH0AGJQ,广东省人民医院门诊住院楼神经内科354,113.28176122066394,23.12831676678642,越秀区,综合医院,三级甲等医院
B0FFH0AGLF,广东省人民医院门诊住院楼中医科411,113.28217162832564,23.12824426162448,越秀区,综合医院,三级甲等医院
B0FFH0AGU5,广东省人民医院门诊住院楼耳鼻喉科514,113.2820118581577,23.12829245077508,越秀区,综合医院,三级甲等医院
B0FFH0AGU3,广东省人民医院门诊住院楼耳鼻喉科509,113.28217262706856,23.12824126153085,越秀区,综合医院,三级甲等医院
B0FFH0AGO1,广东省人民医院门诊住院楼正骨科420,113.28201285677066,23.12829144987789,越秀区,综合医院,三级甲等医院
B0FFH0AGKI,广东省人民医院门诊住院楼脊柱外科317,113.28216064625676,23.12821628729685,越秀区,综合医院,三级甲等医院
B0FFH0AGLT,广东省人民医院门诊住院楼中医科419,113.28199189006492,23.128250493760056,越秀区,综合医院,三级甲等医院
B0FFH0AGU0,广东省人民医院门诊住院楼耳鼻喉科510,113.2821586488375,23.12822128788736,越秀区,综合医院,三级甲等医院
B0FFH0AGER,广东省人民医院门诊住院楼妇科,113.28210972404185,23.12816537443696,越秀区,综合医院,三级甲等医院
B0FFH0AGF5,发热门诊(门诊住院楼),113.2820657921668,23.128105456024265,越秀区,综合医院,三级甲等医院
B0FFH0AGKJ,广东省人民医院门诊住院楼脑外专科355,113.28177919656416,23.128287755203058,越秀区,综合医院,三级甲等医院
B0FFH0AGT4,广东省人民医院门诊住院楼皮肤科539,113.28180416494226,23.12821975030056,越秀区,综合医院,三级甲等医院
B0FFH0AGPI,广东省人民医院门诊住院楼生殖医学专科门诊(1),113.28190002711884,23.12819963390062,越秀区,综合医院,三级甲等医院
B0FFH0AGLR,广东省人民医院门诊住院楼中医科413,113.28214566887334,23.128205311317625,越秀区,综合医院,三级甲等医院
B0FFH0AGIG,广东省人民医院门诊住院楼内分泌糖尿病科343,113.28187706021671,23.12820366213149,越秀区,综合医院,三级甲等医院
B0FFH0AGJI,广东省人民医院门诊住院楼消化内科345,113.2818141508617,23.12821373977002,越秀区,综合医院,三级甲等医院
B0FFH0AGIJ,广东省人民医院门诊住院楼内科342,113.2819080155766,23.12819862391962,越秀区,综合医院,三级甲等医院
B0FFH0AGOG,广东省人民医院门诊住院楼妇科443,113.2818131518392,23.12822073823751,越秀区,综合医院,三级甲等医院
B0FFH0AGTB,广东省人民医院门诊住院楼皮肤科537,113.28174425111402,23.12822982392924,越秀区,综合医院,三级甲等医院
B0FFH0AGIT,广东省人民医院门诊住院楼内科321,113.28208676125033,23.128110426641875,越秀区,综合医院,三级甲等医院
B0FFGZIDUJ,中山大学附属第一医院后勤楼,113.28700410832508,23.13018483962716,越秀区,综合医院,三级甲等医院
B0FFGFTQ9X,中山大学附属第一医院行政楼,113.2864739658114,23.12995069243458,越秀区,综合医院,三级甲等医院
B0FFGZI7QG,中山大学附属第一医院邱德根楼,113.28651299632254,23.12858418861721,越秀区,综合医院,三级甲等医院
B0FFGZUBTK,中山大学附属第一医院院史馆,113.28656589757406,23.12880702317742,越秀区,综合医院,三级甲等医院
B0FFG50WH3,广州市妇女儿童医疗中心(珠江新城院区)住院部,113.31493601888738,23.128061963310792,天河区,综合医院,三级甲等医院
B0FFGFOVCU,广州市妇女儿童医疗中心(珠江新城院区)隔离门诊,113.31441808312556,23.12799696788141,天河区,综合医院,三级甲等医院
B0FFGFOXUV,广州市妇女儿童医疗中心(珠江新城院区)小儿咳喘专科,113.31451289677408,23.12788583386897,天河区,综合医院,三级甲等医院
B0FFGFOVQF,广州市妇女儿童医疗中心(珠江新城院区)检验科,113.31465759520826,23.1279675276028,天河区,综合医院,三级甲等医院
B0FFGFOXVB,广州市妇女儿童医疗中心(珠江新城院区)小儿普通外科,113.31446700319258,23.12770099526649,天河区,综合医院,三级甲等医院
B0FFGFOXUS,广州市妇女儿童医疗中心(珠江新城院区)小儿呼吸科,113.31465460851726,23.12786157609517,天河区,综合医院,三级甲等医院
B0FFGFOV4B,广州市妇女儿童医疗中心(珠江新城院区)儿童过敏免疫风湿病专科,113.31452688141349,23.127690886325134,天河区,综合医院,三级甲等医院
B0FFGFOYEI,广州市妇女儿童医疗中心(珠江新城院区)血管瘤激光专科,113.31493302162863,23.128111948764587,天河区,综合医院,三级甲等医院
B0FFGFOXUQ,广州市妇女儿童医疗中心(珠江新城院区)小儿骨科,113.31459374423982,23.1276967577071,天河区,综合医院,三级甲等医院
B0FFGFOWQE,广州市妇女儿童医疗中心(珠江新城院区)皮肤科,113.31472347344685,23.127775480840512,天河区,综合医院,三级甲等医院
B0FFGFOYWQ,广州市妇女儿童医疗中心(珠江新城院区)整形美容外科,113.31497294361948,23.1280568955521,天河区,综合医院,三级甲等医院
B0FFGFOUVA,广州市妇女儿童医疗中心(珠江新城院区)病理科,113.31504679963663,23.12794979920898,天河区,综合医院,三级甲等医院
B0FFGFOUZI,广州市妇女儿童医疗中心(珠江新城院区)成人内科,113.3151785274928,23.127983536401626,天河区,综合医院,三级甲等医院
B0FFGFOX17,广州市妇女儿童医疗中心(珠江新城院区)输血科,113.31507275184774,23.1278707820867,天河区,综合医院,三级甲等医院
B00141TXBO,广州市妇女儿童医疗中心(珠江新城院区)平价门诊,113.31441515355507,23.127048357242103,天河区,综合医院,三级甲等医院
B0FFFGTR83,广州市妇女儿童医疗中心(珠江新城院区),113.31483925677976,23.127476383078424,天河区,综合医院,三级甲等医院
B0FFGFOV4I,广州市妇女儿童医疗中心(珠江新城院区)儿童牙科,113.31435228155166,23.12705647259263,天河区,综合医院,三级甲等医院
B001423S0M,广州市妇女儿童医疗中心(珠江新城院区)妇产科急诊,113.31469158426675,23.127104812475128,天河区,综合医院,三级甲等医院
B0FFGFOWFZ,广州市妇女儿童医疗中心(珠江新城院区)美容牙科,113.31438321830528,23.127056414243548,天河区,综合医院,三级甲等医院
B0FFGFOYF2,广州市妇女儿童医疗中心(珠江新城院区)牙周病专科,113.3144740330217,23.12705024535209,天河区,综合医院,三级甲等医院
B0FFGFOXUY,广州市妇女儿童医疗中心(珠江新城院区)小儿内科,113.31447303607897,23.127035253303347,天河区,综合医院,三级甲等医院
B0FFGFOX30,广州市妇女儿童医疗中心(珠江新城院区)胎儿医生专科,113.31442113616214,23.127124315202025,天河区,综合医院,三级甲等医院
B00141WVNX,中山大学附属第一医院门诊部,113.28458701520682,23.12825201850958,越秀区,综合医院,三级甲等医院
B0FFH0AGL5,广东省人民医院门诊住院楼产科425,113.28210573673476,23.128063420866603,越秀区,综合医院,三级甲等医院
B0FFH0AGTL,广东省人民医院门诊住院楼眼科523,113.28212071696213,23.128032413833644,越秀区,综合医院,三级甲等医院
B0FFH0AGIP,广东省人民医院门诊住院楼内科323,113.28210573707123,23.12805842288704,越秀区,综合医院,三级甲等医院
B0FFH0AGIF,广东省人民医院门诊住院楼内分泌糖尿病科336,113.28193997847424,23.12805963852522,越秀区,综合医院,三级甲等医院
B0FFH0AGTE,广东省人民医院门诊住院楼皮肤科534A,113.28181016540424,23.12808379747815,越秀区,综合医院,三级甲等医院
B0FFH0AGT9,广东省人民医院门诊住院楼眼科524,113.2821366953886,23.12800640346965,越秀区,综合医院,三级甲等医院
B0FFH0AGJN,广东省人民医院门诊住院楼消化科340,113.2817911927851,23.12808582127926,越秀区,综合医院,三级甲等医院
B0FFH0AGK8,广东省人民医院门诊住院楼消化内科341,113.28176223435834,23.128091856396768,越秀区,综合医院,三级甲等医院
B0FFH0AGN6,广东省人民医院门诊住院楼妇科435,113.28193897972456,23.12806263861208,越秀区,综合医院,三级甲等医院
B0FFH0AGN2,广东省人民医院门诊住院楼妇科437,113.28184511489228,23.128080753331005,越秀区,综合医院,三级甲等医院
B0FFH0AGT1,广东省人民医院门诊住院楼皮肤科533,113.28184012227388,23.12807876062118,越秀区,综合医院,三级甲等医院
B0FFH0AGKC,广东省人民医院门诊住院楼血液内科326,113.28215267380764,23.127980393098824,越秀区,综合医院,三级甲等医院
B0FFH0AGNI,广东省人民医院门诊住院楼妇科440,113.2817572412568,23.12809686084677,越秀区,综合医院,三级甲等医院
B0FFH0AGN4,广东省人民医院门诊住院楼妇科439,113.28178619968776,23.128090825733324,越秀区,综合医院,三级甲等医院
B0FFH0AGJU,广东省人民医院门诊住院楼消化内科337,113.28187806771672,23.128070714572907,越秀区,综合医院,三级甲等医院
B0FFH0AGLJ,广东省人民医院门诊住院楼产科427,113.28213869227076,23.12800939964797,越秀区,综合医院,三级甲等医院
B0H6L4CW77,广东省人民医院体检,113.281918031682,23.12774379481421,越秀区,综合医院,三级甲等医院
B0FFH0AGSW,广东省人民医院门诊住院楼眼科580,113.28202386452726,23.12793857819692,越秀区,综合医院,三级甲等医院
B0FFH0AGGZ,广东省人民医院门诊住院楼内分泌糖尿病科330,113.28209176608128,23.12793049286427,越秀区,综合医院,三级甲等医院
B00140H4HY,广州医科大学附属中医医院(珠玑院区),113.23849816981034,23.11206403156275,荔湾区,综合医院,三级甲等医院
B0FFM9YLBY,广州医科大学附属中医医院珠玑院区门诊部,113.23831716229718,23.11177610829992,荔湾区,综合医院,三级甲等医院
B0FFM9YJTS,广州医科大学附属中医医院珠玑院区急诊,113.2385971847268,23.11205205875559,荔湾区,综合医院,三级甲等医院
B0H31SXJDB,中山大学孙逸仙纪念医院南院区门诊,113.2923661228872,23.07204591114871,海珠区,综合医院,三级甲等医院
B0IK9AWXB1,中山大学孙逸仙纪念医院南院区发热门诊,113.29214150841852,23.07206525384934,海珠区,综合医院,三级甲等医院
B0FFKG037P,中山大学孙逸仙纪念医院南院区急诊,113.29231118915294,23.07246781799821,海珠区,综合医院,三级甲等医院
B00141KDR1,中山大学孙逸仙纪念医院南院区,113.2926735291622,23.07297203605022,海珠区,综合医院,三级甲等医院
B0FFINM704,广州市妇女儿童医疗中心珠江新城院区输液室-母婴室,113.31452691800683,23.12715110469101,天河区,综合医院,三级甲等医院
B0FFGFOZ2U,广州市妇女儿童医疗中心(珠江新城院区)助产门诊,113.31445207195492,23.127138251175865,天河区,综合医院,三级甲等医院
B0FFGFOUX0,广州市妇女儿童医疗中心(珠江新城院区)产科门诊,113.31464169286603,23.12700894551902,天河区,综合医院,三级甲等医院
B0FFGFOV4L,广州市妇女儿童医疗中心(珠江新城院区)耳鼻喉科,113.31466264964956,23.127013903931083,天河区,综合医院,三级甲等医院
B0FFGFOVHF,广州市妇女儿童医疗中心(珠江新城院区)颌面外科专科,113.3146017680934,23.127103982441163,天河区,综合医院,三级甲等医院
B0FFGFOZ1L,广州市妇女儿童医疗中心(珠江新城院区)中医儿科,113.31441213507844,23.12741121606716,天河区,综合医院,三级甲等医院
B0FFGFOX3O,广州市妇女儿童医疗中心(珠江新城院区)糖尿病专科,113.31443808724232,23.1273341982586,天河区,综合医院,三级甲等医院
B0FFGFOXVE,广州市妇女儿童医疗中心(珠江新城院区)小儿肾病专科,113.31446802615702,23.127332142583978,天河区,综合医院,三级甲等医院
B0FFGFOV5F,广州市妇女儿童医疗中心(珠江新城院区)耳及听力专科,113.31475845408124,23.127006725858976,天河区,综合医院,三级甲等医院
B0FFGFOXVD,广州市妇女儿童医疗中心(珠江新城院区)小儿神经康复专科,113.31443608529251,23.12742316603228,天河区,综合医院,三级甲等医院
B0FFGFOXYP,广州市妇女儿童医疗中心(珠江新城院区)新生儿高危儿门诊,113.31449796506668,23.127330086903573,天河区,综合医院,三级甲等医院
B0FFGFOXVH,广州市妇女儿童医疗中心(珠江新城院区)小儿血液病专科,113.31452989988908,23.127328027450865,天河区,综合医院,三级甲等医院
B0FFGFOXVG,广州市妇女儿童医疗中心(珠江新城院区)小儿心脏病专科,113.31447500645028,23.12741209705135,天河区,综合医院,三级甲等医院
B0I02UH42F,广州市妇女儿童医疗中心(珠江新城院区)生殖中心,113.31479936681556,23.12705862754322,天河区,综合医院,三级甲等医院
B0FFGFOW4C,广州市妇女儿童医疗中心(珠江新城院区)临床营养科,113.3147824037074,23.127026672532622,天河区,综合医院,三级甲等医院
B0FFGFOV4C,广州市妇女儿童医疗中心(珠江新城院区)儿童过敏免疫风湿专科,113.31450594223348,23.12742603301628,天河区,综合医院,三级甲等医院
B0FFGFOV50,广州市妇女儿童医疗中心(珠江新城院区)耳鼻咽喉科,113.31487621575518,23.12696651960269,天河区,综合医院,三级甲等医院
B0HBGRD8YK,广州市妇女儿童医疗中心(珠江新城院区)特需人群接种门诊,113.31481730985271,23.12735647307772,天河区,综合医院,三级甲等医院
B0FFGFOXUR,广州市妇女儿童医疗中心(珠江新城院区)小儿骨科介入专科,113.3145538313161,23.1276168653911,天河区,综合医院,三级甲等医院
B0FFGFOYEJ,广州市妇女儿童医疗中心(珠江新城院区)血管瘤专科,113.31457977952898,23.1275978241014,天河区,综合医院,三级甲等医院
B0FFH0AGKZ,广东省人民医院门诊住院楼风湿免疫科329,113.2821347046978,23.127911444471625,越秀区,综合医院,三级甲等医院
B0FFH0AGT0,广东省人民医院门诊住院楼眼科573,113.28212771409468,23.127923448753226,越秀区,综合医院,三级甲等医院
B0FFH0AGKF,广东省人民医院门诊住院楼风湿免疫科327,113.28216765354357,23.127956383218425,越秀区,综合医院,三级甲等医院
B0FFH0AGKK,广东省人民医院门诊住院楼风湿免疫科328,113.28211772752591,23.12794045492528,越秀区,综合医院,三级甲等医院
B0FFH0AGIZ,广东省人民医院门诊住院楼呼吸科331,113.28210874319862,23.127902482018936,越秀区,综合医院,三级甲等医院
B0FFH0AGSV,广东省人民医院门诊住院楼眼科579,113.28204184035748,23.127908566890124,越秀区,综合医院,三级甲等医院
B0FFH0AGTA,广东省人民医院门诊住院楼眼科572,113.28213969801374,23.12790244158576,越秀区,综合医院,三级甲等医院
B0FFH0AGIS,广东省人民医院门诊住院楼呼吸内科332,113.28206081425152,23.12788555144299,越秀区,综合医院,三级甲等医院
B0FFH0AGSZ,广东省人民医院门诊住院楼眼科578,113.28205682014152,23.127884557057023,越秀区,综合医院,三级甲等医院
B0FFF5IWER,中山大学附属第一医院挂号处,113.2843503761674,23.12825534160754,越秀区,综合医院,三级甲等医院
B0FFGZUBPI,中山大学附属第一医院门急诊住院大楼,113.28467288100926,23.12829288389401,越秀区,综合医院,三级甲等医院
B0FFFDAR67,中山大学附属第一医院耳鼻咽喉科,113.28461996472838,23.12825297282979,越秀区,综合医院,三级甲等医院
B0FFG2Y5EH,中山大学附属第一医院科研楼,113.28512213649068,23.129085942372,越秀区,综合医院,三级甲等医院
B00140226E,中山大学附属第一医院,113.2857990921301,23.128978040009684,越秀区,综合医院,三级甲等医院
B0FFFQ0TTH,中山大学附属第一医院急诊,113.28493749061582,23.1280566142472,越秀区,综合医院,三级甲等医院
B0H2MA1VSX,中山大学附属第一医院1号楼住院部,113.28464992230796,23.12820195224933,越秀区,综合医院,三级甲等医院
B0FFGZUBKB,中山大学附属第一医院PET-CT中心,113.28522996974876,23.12908679215518,越秀区,综合医院,三级甲等医院
B0FFJZXZUI,中山大学附属第一医院新生儿科,113.28471182645433,23.12821686099776,越秀区,综合医院,三级甲等医院
B0FFGENI8W,广州医科大学附属中医医院珠玑院区住院楼,113.23853217195432,23.1121050223978,荔湾区,综合医院,三级甲等医院
B0I634UJWA,广州医科大学附属中医医院珠玑院区胸痛中心,113.23863718991672,23.11205806517864,荔湾区,综合医院,三级甲等医院
B0K6YH7C1L,广州医科大学附属中医医院珠玑院区创伤中心,113.2386831952641,23.1120730691612,荔湾区,综合医院,三级甲等医院
B0K6YH9VBB,广州医科大学附属中医医院珠玑院区卒中中心,113.23865219233228,23.112053070551664,荔湾区,综合医院,三级甲等医院
B0FFGFOXU3,广州市妇女儿童医疗中心(珠江新城院区)消化内科,113.31452988044032,23.127614911400144,天河区,综合医院,三级甲等医院
B0FFGFOYOC,广州市妇女儿童医疗中心(珠江新城院区)营养门诊,113.31474145437431,23.12751455243492,天河区,综合医院,三级甲等医院
B0IKRMFTRS,广州市妇女儿童医疗中心(珠江新城院区)发热门诊,113.31489514393284,23.12745328679696,天河区,综合医院,三级甲等医院
B0FFGFOV4E,广州市妇女儿童医疗中心(珠江新城院区)儿童护理中心,113.31513367893268,23.12710697591412,天河区,综合医院,三级甲等医院
B0FFGFOXIW,广州市妇女儿童医疗中心(珠江新城院区)微创中心,113.31504484635455,23.12732105727516,天河区,综合医院,三级甲等医院
B0FFGFOVRG,广州市妇女儿童医疗中心(珠江新城院区)戒烟咨询门诊,113.31509971671854,23.12757485080083,天河区,综合医院,三级甲等医院
B0FFK50SR8,中山大学孙逸仙纪念医院南院区精准肿瘤诊疗中心,113.29233617466252,23.07204395882989,海珠区,综合医院,三级甲等医院
B0FFGRF5N5,中山大学孙逸仙纪念医院南院区住院部,113.29279430247448,23.07322973676165,海珠区,综合医院,三级甲等医院
B0FFHOSPCJ,中山大学孙逸仙纪念医院(南院区)办公室,113.2927544147757,23.072590070933657,海珠区,综合医院,三级甲等医院
B0FFGI0DT6,中山大学孙逸仙纪念医院南院区逸仙楼,113.29287215673136,23.073387547195733,海珠区,综合医院,三级甲等医院
B0FFG9J1E0,中山大学附属第一医院病案管理科,113.2854515938904,23.129565289970422,越秀区,综合医院,三级甲等医院
B0FFFCT4RL,中山大学附属第一医院5号楼住院部,113.28576914996584,23.12881414830799,越秀区,综合医院,三级甲等医院
B0FFHFJPJS,中山大学附属第一医院医疗质量控制中心,113.28545558782182,23.12956328519941,越秀区,综合医院,三级甲等医院
B00141WOGA,中山大学附属第一医院磁共振检查室,113.28525197232288,23.128543980828184,越秀区,综合医院,三级甲等医院
B0FFG1L4EN,中山大学附属第一医院曾宪梓大楼,113.28542570120622,23.128570727814243,越秀区,综合医院,三级甲等医院
B0FFI6K7K5,中山大学附属第一医院柯麟楼,113.28578012587532,23.1289170912947,越秀区,综合医院,三级甲等医院
B0JU6Z0JEX,中山大学附属第一医院体检中心,113.28607960601272,23.12967036499382,越秀区,综合医院,三级甲等医院
B0FFGFTKEA,中山大学附属第一医院何善衡楼,113.28609358722916,23.129623364198377,越秀区,综合医院,三级甲等医院
B0IRYOG44H,中山大学附属第一医院男性健康管理中心,113.2857990921301,23.128978040009684,越秀区,综合医院,三级甲等医院
B0FFG9J9EZ,中山大学附属第一医院烧伤科,113.28590991798583,23.12898987922268,越秀区,综合医院,三级甲等医院
B0FFG2ZB96,中山大学附属第一医院刘銮雄特需医疗中心二区,113.28593288142204,23.128998843237365,越秀区,综合医院,三级甲等医院
B0FFGFTQO3,中山大学附属第一医院手术科大楼,113.285884960691,23.12893593617081,越秀区,综合医院,三级甲等医院
B0FFHOCYSM,中山大学附属第一医院-输血科,113.28586199904366,23.12889998302741,越秀区,综合医院,三级甲等医院
B0FFGLZMK8,中山大学附属第一医院心外二科,113.28590492512735,23.128999882217496,越秀区,综合医院,三级甲等医院
B0K6YH7C1M,广州医科大学附属中医医院珠玑院区住院附楼,113.23849015431716,23.112277941797736,荔湾区,综合医院,三级甲等医院
B0IKRMF6QE,广州医科大学附属中医医院珠玑院区发热门诊,113.23840614294944,23.112263928347804,荔湾区,综合医院,三级甲等医院
B0FFM9YJTT,广州医科大学附属中医医院珠玑院区影像附楼,113.23836013562324,23.11227091484241,荔湾区,综合医院,三级甲等医院
