id,name,longitude,latitude,adname,中类,小类
B0GD7Y8MWY,weillbo,113.3371436,23.1891392,天河区,商场,免税品店
B0GU6CBAQ2,龙汇商贸小镇,113.36208,23.1941423,天河区,商场,普通商场
B00140VAUE,河水购物城,113.3257775,23.1753477,天河区,商场,普通商场
B0H3GR4HM8,迎龙海悦城,113.3597781,23.1952519,天河区,商场,购物中心
B0JB161SYB,汇美商城,113.3635355,23.2023114,天河区,商场,普通商场
B0IDC1SEB1,赫兹广场,113.3397556,23.1749378,天河区,商场,普通商场
B00141IH9C,龙洞购物中心,113.361239,23.1960187,天河区,商场,购物中心
B00141KDLJ,龙洞又一城,113.3615596,23.1957514,天河区,商场,普通商场
B0FFFCUY7D,丰荟城,113.3614148,23.1959175,天河区,商场,购物中心
B0FFHEZ8S7,龙洞商业广场,113.3609763,23.1964639,天河区,商场,普通商场
B0IGZC13YU,ing未来印,113.3934704,23.1403119,天河区,商场,购物中心
B0I0CUHDJE,棠下智汇PARK购物中心,113.3699898,23.1433382,天河区,商场,购物中心
B0FFHMZFTL,智慧城广百广场,113.399248,23.1691696,天河区,商场,购物中心
B0FFG63M2S,得利达广场,113.4079322,23.1649338,天河区,商场,商场
B0H14LTCY8,新惠百货(新塘市场店),113.4076994,23.1601456,天河区,商场,商场
B0H3Z5E7LC,时代,113.3973037,23.167509,天河区,商场,商场
B0JG5AXAC8,广州金融城广场(建设中),113.3727466,23.1199169,天河区,商场,购物中心
B00140W8IE,优托邦购物中心(奥体中心店),113.4098967,23.1335772,天河区,商场,购物中心
B0H1KX7QP2,美林M·LIVE天地-西座,113.4077449,23.1088552,天河区,商场,商场
B0FFM6QUQ8,极配者,113.4268854,23.127837,天河区,商场,免税品店
B00141I7LX,天河城百货(奥体中心优托邦购物中心店),113.4105113,23.1319973,天河区,商场,普通商场
B0HD39PADN,美林M·LIVE天地,113.4094832,23.1082003,天河区,商场,商场
B0FFIMFEFE,美林M·LIVE天地东座,113.4101327,23.107582,天河区,商场,购物中心
B0FFM8S1B6,万胜广场商业中心,113.37735,23.0988595,海珠区,商场,商场
B0FFH1YN8U,六元素·体验天地,113.3667975,23.098742,海珠区,商场,购物中心
B0FFIDSXVR,万胜围商业广场,113.3775935,23.1035364,海珠区,商场,商场
B0H3RAGO7N,琶洲商业广场,113.3771708,23.1039795,海珠区,商场,购物中心
B0FFKDJXFZ,B区(万胜围商业广场店),113.3781641,23.103318,海珠区,商场,普通商场
B0FFLKIS4G,琶洲商业广场A区(万胜围商业广场店),113.3772967,23.1039874,海珠区,商场,商场
B0FFIU5WW8,保利广场,113.3783941,23.1012637,海珠区,商场,普通商场
B0FFIW695D,若比邻社区商业中心(广州保利天悦店),113.37571,23.1042796,海珠区,商场,普通商场
B0FFL35WUX,玖零之家,113.3679414,23.1383025,天河区,商场,免税品店
B00140W7XY,乐天棠德广场,113.3763554,23.1345037,天河区,商场,商场
B00141SB6I,旺角商城(棠东丰乐路),113.3784199,23.1325539,天河区,商场,普通商场
B0FFMD783T,鼎富时代广场,113.3836415,23.1342258,天河区,商场,普通商场
B0KDJCEGQ2,下沉商场,113.3792133,23.1045027,海珠区,商场,商场
B00141KEWV,棠汇广场,113.3776324,23.1343927,天河区,商场,普通商场
B00141SB8A,骏唐购物广场,113.3779885,23.1285458,天河区,商场,购物中心
B00141K3TB,骏唐广场(骏唐购物广场店),113.3777267,23.128452,天河区,商场,普通商场
B0KUNA9JCW,广州天河合生汇(建设中),113.3800801,23.1273368,天河区,商场,购物中心
B0FFF2G1CU,棠潮女人街(汇长大厦店),113.3770682,23.1283866,天河区,商场,购物中心
B0FFG4GQ5U,智汇商业城,113.4034573,23.1265762,天河区,商场,普通商场
B0HK1HC0NB,东江商业中心,113.3769909,23.1345672,天河区,商场,商场
B0JRCH5A0T,天河广场,113.3975477,23.124717,天河区,商场,普通商场
B0I3F7OBFR,商业中心(东圃购物中心东圃大马路店),113.3975307,23.1247759,天河区,商场,普通商场
B0FFGXKKZS,东圃购物中心(东圃大马路店),113.3973428,23.1229177,天河区,商场,购物中心
B00140U41P,东圃购物中心A座,113.3980979,23.1231706,天河区,商场,购物中心
B00141RH4Y,东圃购物中心C座,113.3967127,23.1233675,天河区,商场,购物中心
B0FFG0URT8,东圃购物中心C座副楼,113.3970337,23.1232895,天河区,商场,购物中心
B0FFMAL257,FNMHAIR,113.3914885,23.1264328,天河区,商场,免税品店
B0FFFWX959,雅景大广场,113.3882203,23.1263119,天河区,商场,普通商场
B00141JL5G,天河城百货(东圃店),113.399205,23.1245322,天河区,商场,普通商场
B001402FE3,东圃购物中心B座,113.3974828,23.122239,天河区,商场,购物中心
B0FFG8TGQD,聚时代星座广场,113.3984729,23.1236534,天河区,商场,购物中心
B00141RAFN,四季时尚荟,113.3964837,23.1224499,天河区,商场,普通商场
B0IAV686D2,佳丰百货(乐易购生活超市店),113.4103216,23.1252519,天河区,商场,普通商场
B00140HS0E,美华百货(东圃店),113.3963348,23.1202098,天河区,商场,普通商场
B0FFG1O2Q3,Haiet(东圃商业大厦店),113.3981798,23.1238853,天河区,商场,免税品店
B0FFFR7N8D,广州M+Park漫广场,113.4191423,23.1147123,天河区,商场,购物中心
B0JK1UE3X4,IMOLA(罗浮宫店),113.3775235,23.1188851,天河区,商场,免税品店
B0FFGDKE4R,博裕广场,113.4133927,23.1195133,天河区,商场,普通商场
B0IA31D5IR,羽泰广场(启源广场店),113.4149262,23.1198553,天河区,商场,普通商场
B0FFFDAXS4,广州天河欢乐颂(装修中),113.4150054,23.118444,天河区,商场,购物中心
B00140AUHU,汇圃名城(广州十五社商业街店),113.3952708,23.1200699,天河区,商场,普通商场
B00140U48E,东圃摩登城,113.3949158,23.11985,天河区,商场,购物中心
B0G1PCKOKN,吉满家广场(富康小食街店),113.3939768,23.1190994,天河区,商场,普通商场
B0FFIBPGW4,东信广场(河沙商业街店),113.2138472,23.1394124,荔湾区,商场,普通商场
B0HDXU9SCQ,柴宝里,113.2348964,23.156979,荔湾区,商场,商场
B0FFIPHMB9,骏诚广场,113.2360211,23.1514175,荔湾区,商场,普通商场
B0FFI7TYU9,若比邻社区商业中心(广州君荟名轩店),113.2376778,23.1460661,荔湾区,商场,普通商场
B0FFI6G860,雅宝商贸城(西郊大厦店),113.2411585,23.1408019,荔湾区,商场,普通商场
B0HBXRRY9J,XUPING,113.212017,23.1285537,荔湾区,商场,免税品店
B0FFGDRM05,海荟城(荔河商贸中心店),113.2233796,23.1257318,荔湾区,商场,商场
B0FFFQ7LQH,西湾荟,113.2025441,23.1145142,荔湾区,商场,普通商场
B0FFHQJVFH,圣地新天地广场,113.2240575,23.1353654,荔湾区,商场,购物中心
B00141UE4X,悦汇城,113.2376983,23.1525136,荔湾区,商场,购物中心
B0FFHPOKXQ,跨境直购体验店(湛江大厦店),113.2446861,23.1446815,荔湾区,商场,免税品店
B00141RF7G,荔湾商厦,113.2395488,23.1340503,荔湾区,商场,普通商场
B00141SAJJ,广州荔湾荔锦商贸城,113.2399868,23.1343083,荔湾区,商场,普通商场
B0FFK4C0TC,康王·柏德来商业城,113.2424781,23.1318376,荔湾区,商场,普通商场
B0FFLHI667,唐铭广场,113.239018,23.1309025,荔湾区,商场,普通商场
B00141K2CI,星域广场,113.241807,23.1328181,荔湾区,商场,购物中心
B0FFH2AIW6,康王.柏德来商业城,113.2428879,23.1340497,荔湾区,商场,普通商场
B00141JG9B,星玺广场,113.2458768,23.1322435,荔湾区,商场,普通商场
B0H2J7UWT0,获恩广场,113.2366604,23.1337747,荔湾区,商场,普通商场
B0HGNBLAXN,工美中心商场,113.238884,23.1298719,荔湾区,商场,普通商场
B00140QVAN,荔景商城,113.2349063,23.1286622,荔湾区,商场,购物中心
B0FFFSL99J,柏德来商业城(6入口),113.2424852,23.1304272,荔湾区,商场,商场
B0FFGOA7Y1,荔湾区富邦中心商场,113.2474388,23.1276302,荔湾区,商场,商场
B00141RFZQ,美荔汇,113.2425174,23.1279572,荔湾区,商场,普通商场
B0GKJMVG4M,城光荟,113.2425874,23.1268676,荔湾区,商场,购物中心
B0FFF5VYIM,和业广场,113.2423206,23.1247314,荔湾区,商场,普通商场
B0FFFPKFFD,盛悦广场,113.2332351,23.1230398,荔湾区,商场,购物中心
B0FFI36RL3,西关新都荟(康王中路店),113.2420416,23.1246405,荔湾区,商场,普通商场
B0G2BS8MKR,轻慢采耳·按摩·SPA生活馆(陈家祠店),113.2438605,23.1250134,荔湾区,商场,免税品店
B0GKG799Z6,白鹅潭雅诺广场,113.2033879,23.1187347,荔湾区,商场,商场
B0FFF3V42O,新西关广场,113.2018662,23.1130089,荔湾区,商场,购物中心
B00141KABC,华裕购物广场,113.2054593,23.1105059,荔湾区,商场,普通商场
B0FFKPPJUG,兵兵港岛(万和苑店),113.2076791,23.109943,荔湾区,商场,免税品店
B00140I1RB,文昌广场,113.2387277,23.1201068,荔湾区,商场,普通商场
B00140DZIZ,恒宝广场,113.2360932,23.120275,荔湾区,商场,购物中心
B00140TDLD,十甫名都商城,113.2401541,23.1158648,荔湾区,商场,普通商场
B00140V0CW,柏乐商贸城,113.2451002,23.1570727,越秀区,商场,普通商场
B00140SNSM,广州美博城,113.245907,23.158737,越秀区,商场,普通商场
B0JR95L93S,中鑫商城,113.2440737,23.1514479,越秀区,商场,普通商场
B00141SPBX,新其路鞋业广场,113.2430289,23.1498105,荔湾区,商场,普通商场
B00141S2V3,广州环球国际商贸中心步云天地,113.2426079,23.1490507,荔湾区,商场,购物中心
B0FFLEPDMS,金马,113.2423819,23.1504042,越秀区,商场,普通商场
B0FFGQ3K17,东急新天地购物广场,113.2433321,23.1171696,荔湾区,商场,普通商场
B00141S0VE,东方汇,113.2426391,23.1169117,荔湾区,商场,购物中心
B0FFH53P08,源盛商场(人民南路店),113.2474855,23.1168946,越秀区,商场,普通商场
B0G39NK9UH,领展购物广场·广州,113.2349924,23.1130926,荔湾区,商场,购物中心
B0FFIBQ1F6,人民南十三行,113.2459461,23.1133182,荔湾区,商场,普通商场
B00140TXR0,广州国际鞋业广场,113.2417289,23.1491616,荔湾区,商场,普通商场
B0J3OAW610,永旺Stock(西城鞋业写字楼店),113.241084,23.1482919,荔湾区,商场,购物中心
B0FFFVFJJT,华林国际C馆,113.2412568,23.1217056,荔湾区,商场,普通商场
B0FFHWM8IL,广州新中国诚大,113.2474058,23.113369,荔湾区,商场,商场
B0G0VUKRSE,行大时代(新中国大厦店),113.2476887,23.113245,荔湾区,商场,普通商场
B00140GX86,荔湾广场,113.2430689,23.1190868,荔湾区,商场,购物中心
B00140OWDS,多品美美食购物新天地,113.3387183,23.1645966,天河区,商场,普通商场
B0I3FRTK7U,广州市·琶洲汇,113.3298728,23.1059265,海珠区,商场,普通商场
B0JUTZ9IHE,广州智慧城乐活秀(国美·智慧城店),113.3413922,23.1051246,海珠区,商场,购物中心
B0GKHAYEXB,潮墟·潮营,113.3173883,23.1082154,海珠区,商场,商场
B0HBXLRYJR,NOC,113.291389,23.1579123,越秀区,商场,免税品店
B00140B8ZS,五山广场,113.3471563,23.1548716,天河区,商场,普通商场
B0FFJ3QPOL,文立方广场,113.2969274,23.1105634,越秀区,商场,普通商场
B0HBLRAXFC,BURUSKA,113.2513684,23.1466648,越秀区,商场,免税品店
B0I2AAMPXO,流花中心,113.252989,23.1432317,越秀区,商场,普通商场
B001402323,东方商场(流花路),113.2538626,23.1426097,越秀区,商场,商场
B0JR9UF03N,城壹汇,113.2546442,23.143501,越秀区,商场,商场
B001402288,以太广场,113.2567502,23.1421207,越秀区,商场,购物中心
B0G0C4RONC,顺天百货-流通(越天高景金融大厦店),113.2568703,23.1395247,越秀区,商场,商场
B0FFGE90QF,五山新天地商场,113.3485688,23.1542685,天河区,商场,商场
B00141US2I,广东外交人员免税商店,113.3120664,23.1057265,海珠区,商场,免税品店
B001423D8P,汇礼轩,113.319504,23.1082914,海珠区,商场,普通商场
B0FFHLLPBY,金海湾商场,113.2965963,23.1058769,海珠区,商场,普通商场
B00140UEYV,五山花园泽生商场,113.3493116,23.1534816,天河区,商场,普通商场
B00140NF7M,金山象商贸城,113.2694177,23.1433534,越秀区,商场,普通商场
B0FFGLEC8Q,柏丽广场,113.3075285,23.1056689,海珠区,商场,普通商场
B0JRSRL01Q,广州塔广场(装修中),113.3183335,23.1066123,海珠区,商场,购物中心
B0FFGJVJ4S,百货商城,113.3416095,23.1685509,天河区,商场,商场
B0FFFPOYQC,粤垦1618新街市,113.3255262,23.157583,天河区,商场,普通商场
B0IUTM051A,优托邦(长兴店)西区,113.3418617,23.1732787,天河区,商场,购物中心
B0H2BHJOT9,优托邦(长兴店),113.3423727,23.1729869,天河区,商场,购物中心
B00140BXV1,中天购物城,113.3193518,23.1447439,天河区,商场,购物中心
B0FFKQWWS1,远海建设商业广场(远晖商厦店),113.3248275,23.1451263,天河区,商场,商场
B00141J7BS,佳兆业广场,113.3155039,23.142828,天河区,商场,商场
B0JRLM4DOG,优托邦(长兴店)东区,113.3428419,23.1728621,天河区,商场,购物中心
B0FFH8TQQ3,曜一城,113.3389123,23.1445171,天河区,商场,普通商场
B0FFLMDS89,祥龙商业广场,113.3160147,23.1441525,天河区,商场,普通商场
B0H1B7I29R,环贸天地,113.3213447,23.1445522,天河区,商场,购物中心
B0FFL78YG6,华景新天地,113.3590916,23.1438575,天河区,商场,商场
B0G22LW2M6,丽珀SOHO,113.3235843,23.141671,天河区,商场,普通商场
B0JDVXVZNN,粤垦力达广场,113.3220162,23.1602797,天河区,商场,普通商场
B0FFI9QKZG,笙活里(暂停营业),113.331098,23.1546106,天河区,商场,普通商场
B0FFIINIJT,寓米先烈南路时代YOU店(时代精英商务大厦店),113.2815991,23.1342306,越秀区,商场,免税品店
B0FFHWOK65,广州世贸中心店(粤北大厦店),113.2784485,23.1340956,越秀区,商场,商场
B0FFLO0R1M,时光里(建设大马路店),113.2762091,23.1390962,越秀区,商场,普通商场
B001402514,美丽华广场(广发花园店),113.3029434,23.1367725,越秀区,商场,商场
B0FFIINYZ1,7(曜一城店),113.3381697,23.1442985,天河区,商场,商场
B0H6VYFEAG,优选家(金羊花园店),113.3047085,23.1293443,越秀区,商场,免税品店
B00141TDW4,JC金田广场,113.3297415,23.1445161,天河区,商场,普通商场
B0JUURR8KH,时光里南塔,113.2761811,23.1389473,越秀区,商场,普通商场
B00141I5XV,佰盈商业城,113.3043905,23.1227436,越秀区,商场,普通商场
B00141L05Z,广百超市(东山店),113.2917781,23.1317361,越秀区,商场,商场
B00141R4KM,广州澳港百货商场(广百超市店),113.2916284,23.1318263,越秀区,商场,普通商场
B00141RDLW,新富熊大厦商城,113.2899364,23.1284312,越秀区,商场,普通商场
B0FFFW1G0I,建和商业广场(广百超市店),113.2918969,23.1321307,越秀区,商场,普通商场
B0FFKMR42C,广州江湾阳光天地,113.272568,23.1176158,越秀区,商场,商场
B00141OJXG,海港城,113.2772942,23.1162922,越秀区,商场,购物中心
B0FFFEREPY,珠江新天地(海港城店),113.2770675,23.1165053,越秀区,商场,商场
B0HK0ZETQQ,四步社X在地文化,113.2925046,23.1205975,越秀区,商场,商场
B0FFGZP04L,东山锦轩·现代城,113.2905275,23.1279465,越秀区,商场,购物中心
B0FFHC0MG6,杨箕商业城,113.3069569,23.1316064,越秀区,商场,普通商场
B00141YHT8,滨江宏岸,113.2881888,23.1063808,海珠区,商场,普通商场
B0FFKMUNNL,natritience(东山锦轩·现代城店),113.2903677,23.1280897,越秀区,商场,免税品店
B0H2YO1Z0O,花城汇(花城汇店),113.3190987,23.1240867,天河区,商场,普通商场
B0H6T63ZCI,花城汇中区,113.3191935,23.1241205,天河区,商场,购物中心
B00141S17G,高德置地广场·夏,113.31805,23.123171,天河区,商场,普通商场
B0IALODQSR,侨鑫国际商场,113.3170818,23.1256629,天河区,商场,商场
B00141JL4Q,广州高德置地广场,113.3168743,23.1229812,天河区,商场,购物中心
B00140AI6G,明轩文化商城,113.3389526,23.1381206,天河区,商场,普通商场
B0014018B5,天河购物中心,113.3379406,23.1380504,天河区,商场,购物中心
B00141IEXQ,华忆百货(岗顶店),113.3379376,23.1381894,天河区,商场,普通商场
B0GD07AYHE,外商新天地,113.3089682,23.1272005,越秀区,商场,购物中心
B0FFK7HTGZ,新中天商场,113.2484876,23.1124492,越秀区,商场,普通商场
B0FFGI2236,威柏商场,113.2480798,23.110719,荔湾区,商场,普通商场
B0I6CLKB25,暨南商业中心,113.3393822,23.1324381,天河区,商场,普通商场
B0I1TSA3JR,金泽商场,113.3232048,23.1304033,天河区,商场,普通商场
B0FFF3UST1,万俪购物中心,113.3380066,23.1355003,天河区,商场,商场
B0GKGU8GN1,好时光商业中心(翠湖山庄店),113.3475333,23.1294871,天河区,商场,商场
B0FFGTHWBO,高德置地·春广场,113.3167307,23.1226977,天河区,商场,购物中心
B0FFKMCJIA,Yello(富力公园店),113.3387818,23.1251551,天河区,商场,免税品店
B0FFG64CN4,保利克洛维二期时光汇购物中心,113.3142044,23.1293718,天河区,商场,购物中心
B0FFF9SW1I,广州天河领展广场,113.3388446,23.1262635,天河区,商场,购物中心
B0FFMHTMVS,悦生行(保利香槟花园店),113.311273,23.1199012,天河区,商场,免税品店
B0JG3H2SQG,春广场(高德置地广场·春店),113.3168295,23.1227825,天河区,商场,普通商场
B0FFJFYK4C,天德广场,113.3271926,23.1166142,天河区,商场,购物中心
B0FFH6QMOX,珠江道,113.3289366,23.1224565,天河区,商场,购物中心
B0FFM6WY0K,暨南大学商场,113.3431529,23.1351123,天河区,商场,普通商场
B0FFI3I2UI,Jumeirah(高德置地广场·冬广场店),113.3209819,23.1230825,天河区,商场,免税品店
B0FFFHJ7NX,高德置地广场·冬广场,113.3215917,23.1225935,天河区,商场,购物中心
B0FFG4G44M,宝威商业城,113.2549621,23.1578253,越秀区,商场,普通商场
B0HRK5AK12,德域五羊新地,113.3079266,23.1218825,越秀区,商场,普通商场
B0FFHGEFCF,新泓汇商贸城,113.2713487,23.142472,越秀区,商场,普通商场
B00140MPE1,越洋商贸城A区,113.2701449,23.1432588,越秀区,商场,普通商场
B00140V1IZ,广福国际商贸城,113.2728848,23.1445506,越秀区,商场,普通商场
B0JUURRVI3,时光里北塔,113.2761821,23.1398869,越秀区,商场,普通商场
B001401F54,丽柏广场,113.2809057,23.1401701,越秀区,商场,购物中心
B0FFJH4MZC,AMK专柜(丽柏广场店),113.2808637,23.1401442,越秀区,商场,免税品店
B0FFH9BB0E,信达金茂广场·益田假日世界,113.3137104,23.1734754,天河区,商场,购物中心
B0GR5C1POQ,盛叶商贸城,113.3095052,23.1546675,天河区,商场,普通商场
B0FFH83AOG,越富创兴广场,113.2490561,23.1321881,越秀区,商场,普通商场
B0IUTU5L8F,越富广场1期,113.2492201,23.1326009,越秀区,商场,购物中心
B0FFJCZE9U,越富广场2期,113.2490481,23.1318942,越秀区,商场,普通商场
B0KGZMUOQA,越富广场,113.2492201,23.1326009,越秀区,商场,普通商场
B00140UOF1,PO PARK东方宝泰,113.3193774,23.1500168,天河区,商场,购物中心
B0FFHGIIE0,恒立广场,113.2490752,23.1307367,荔湾区,商场,普通商场
B00140IQVV,淘金商业中心,113.2843514,23.1430904,越秀区,商场,普通商场
B00140AG0N,五月花商业广场,113.2615159,23.1285695,越秀区,商场,普通商场
B0FFI3IDHR,Amall商场,113.2604207,23.1286032,越秀区,商场,普通商场
B0GRNLDBU0,N23商场(Amall商场店),113.2603717,23.1283703,越秀区,商场,普通商场
B00141R7UT,天平商业广场,113.3176173,23.1611878,天河区,商场,普通商场
B0FFL6Q23F,羊城商厦车场出口上乐安坊,113.2499475,23.1227998,越秀区,商场,商场
B0FFLAEOLE,悦尚城(东鸣轩店),113.2682339,23.1287913,越秀区,商场,商场
B00140H9IE,大南居商场,113.2609527,23.1224993,越秀区,商场,普通商场
B0FFFX8OUU,动漫星城(中山五路店),113.2596183,23.1284297,越秀区,商场,商场
B00140U3K3,大马站商业中心,113.2625271,23.1277252,越秀区,商场,普通商场
B0JDBS8IU9,东鸣轩商场,113.2683548,23.1285953,越秀区,商场,普通商场
B0FFKRQH9L,城壹汇,113.2639889,23.1278991,越秀区,商场,商场
B0JBNZW7O6,珠江·星火1926,113.2708292,23.1288969,越秀区,商场,购物中心
B00140JNSU,金凯商业城,113.2767011,23.1293225,越秀区,商场,普通商场
B0FFISE0M8,景华商业广场,113.27629,23.124505,越秀区,商场,普通商场
B0HBL5B084,BORRMAN,113.2507892,23.1224857,越秀区,商场,免税品店
B0IR452UXC,粤·潮楼NEW IN,113.264269,23.1235177,越秀区,商场,商场
B0FFHI3UU5,好世界商场,113.2795876,23.1390522,越秀区,商场,普通商场
B0GK5M8PAM,北京路天河城,113.2647297,23.1222808,越秀区,商场,购物中心
B00140BUT7,宜安广场,113.2796047,23.137088,越秀区,商场,购物中心
BY000047DG,宜安广场招商中心,113.2795987,23.1368671,越秀区,商场,普通商场
B00140UGAL,新大新百货(北京路分店),113.2632705,23.1286743,越秀区,商场,普通商场
B0FFFZIPNB,PLAZA,113.2636912,23.1270217,越秀区,商场,普通商场
B0FFK56U8Y,乐淘坊潮流营(广州广怡大厦店),113.2827912,23.1365211,越秀区,商场,商场
B0FFGOFD94,新大新百货(东山广场店),113.2886069,23.13883,越秀区,商场,普通商场
B0JGLPE19P,东方广场,113.2894817,23.1364747,越秀区,商场,普通商场
B0FFHN7K27,未来城,113.2793446,23.1289825,越秀区,商场,普通商场
B0FFH8HLFQ,名创优品(广东广州越秀区粤海仰忠汇店),113.2648126,23.1222498,越秀区,商场,购物中心
B00140BKZ8,东汇城,113.2810352,23.1289035,越秀区,商场,普通商场
B0GKV61RE0,迎宾楼商场,113.2845985,23.1361378,越秀区,商场,普通商场
B0FFMEIN3A,新大新(北京路分新大新百货店),113.2633264,23.1285363,越秀区,商场,普通商场
B0FFFVJSDU,地王广场(较场西路),113.2782052,23.1283982,越秀区,商场,商场
B0FFGKU7ZA,圣诚·商场,113.2709165,23.1224714,越秀区,商场,普通商场
B00140U1OR,东山百货大楼,113.2894405,23.1249704,越秀区,商场,普通商场
B0JGD7I3TF,北京路天河城B区,113.2642592,23.1208118,越秀区,商场,购物中心
B0H1SAG6Q8,天河城A区(北京路天河城店),113.2645978,23.1217981,越秀区,商场,普通商场
B0FFLMI5TU,粤海·得邻,113.2687319,23.1213969,越秀区,商场,普通商场
B0FFI5MSJ3,广州Cheery House复式分店,113.267588,23.1214869,越秀区,商场,免税品店
B00140BHB6,珀东商业中心,113.2888466,23.1227442,越秀区,商场,普通商场
B0FFGOFC32,总院ICU,113.2510753,23.1202695,越秀区,商场,普通商场
B0FFJRSRNC,好百年广场,113.2650153,23.1089621,海珠区,商场,普通商场
B0FFMDB1V6,益丰广场,113.2653441,23.1078303,海珠区,商场,商场
B0GKGOCPRE,孝真e栈(前进店),113.2673462,23.1077497,海珠区,商场,免税品店
B00141R40F,君汇天地,113.2657847,23.1071542,海珠区,商场,普通商场
B0FFK9EGRJ,汇美舍(北京路天河城店),113.2647736,23.1220599,越秀区,商场,商场
B00141OJ0W,粤图广场,113.2839764,23.1222033,越秀区,商场,普通商场
B0FFHPU16C,海印中心(海印摄影城),113.2790216,23.1203474,越秀区,商场,普通商场
B0FFGPWOV0,同乐汇(前进商业街店),113.2664421,23.1067818,海珠区,商场,普通商场
B0IG7DPM7D,融通·寺右壹街,113.3025582,23.1207266,越秀区,商场,商场
B001401AEE,百福广场,113.3235835,23.1377996,天河区,商场,购物中心
B00141JPJ0,时尚天河商业广场,113.3194232,23.1373147,天河区,商场,普通商场
B00141K2E2,直通车商业广场(体育西路),113.3158655,23.1377393,天河区,商场,普通商场
B0HB4U9JPM,VT101维多利广场,113.3154833,23.1375051,天河区,商场,普通商场
B0FFF4MZI3,汇坊(人前店),113.3278847,23.1381762,天河区,商场,商场
B0FFJ52LM6,朗润广场,113.3287708,23.1388043,天河区,商场,普通商场
B0JD7HE7OP,粤海天地,113.3176683,23.1292313,天河区,商场,商场
B0JU5S7C2E,盈隆广场,113.3211002,23.1294367,天河区,商场,普通商场
B0FFGEGLZM,富力盈信大厦商场,113.3164848,23.128242,天河区,商场,普通商场
B0J0ZHAV13,盈通大厦商场店,113.3162722,23.1286042,天河区,商场,普通商场
B0G0FLB9D9,IP Station(VT101维多利广场店),113.3153525,23.1377363,天河区,商场,免税品店
B0G0DU9DGW,APBL(维多利广场写字楼A座店),113.3156898,23.1375167,天河区,商场,免税品店
B0FFKB0ZFG,花城汇北区,113.3192252,23.127484,天河区,商场,购物中心
B00141KHNU,维家思广场,113.3216692,23.1278012,天河区,商场,普通商场
B0FFF3XHXU,丽晶都汇,113.3125031,23.1261053,天河区,商场,普通商场
B00140U93F,南天广场,113.3110722,23.1228313,天河区,商场,普通商场
B0GUKHDGXC,E&H享家(维家思广场店),113.3216742,23.1277253,天河区,商场,免税品店
B0FFHRP6GX,优托邦驿站(高志大厦店),113.3343104,23.1282961,天河区,商场,普通商场
B0G0K1TCEE,悦和生活广场,113.3527967,23.1247615,天河区,商场,普通商场
B00140M76R,东璟商场,113.3561513,23.1254591,天河区,商场,普通商场
B0FFK776TL,棠福万象购物中心,113.3619212,23.1360468,天河区,商场,购物中心
B0FFM68PQN,博兴购物广场,113.3619851,23.135346,天河区,商场,普通商场
B00141THKK,海印都荟城,113.3191988,23.1199751,天河区,商场,普通商场
B0JDVAOGSE,珠江奥莱城,113.3245168,23.1206777,天河区,商场,普通商场
B0FFGESOJG,花城汇南区,113.3191838,23.1206789,天河区,商场,购物中心
B0FFH11BOI,广州K11购物艺术中心,113.3207067,23.1203831,天河区,商场,购物中心
B0KDDU9XQ0,饺印中国煎饺,113.3191838,23.1206789,天河区,商场,购物中心
B0J1XC301O,珠江Mall,113.3266614,23.1206076,天河区,商场,购物中心
B0FFLDQ8CQ,优托邦时光,113.3255167,23.1206888,天河区,商场,普通商场
B0HKCS6MK1,广州市天河区中山大道西209号地下室商场之一(历德雅舍店),113.3614389,23.1351098,天河区,商场,普通商场
B0G0UCOGW5,MeiMeiKeTing客厅,113.3242136,23.1181343,天河区,商场,普通商场
B0FFG23ZZ1,天汇广场igc,113.3264879,23.1185758,天河区,商场,购物中心
B0FFJXV4Z6,国金天地(花城汇店),113.3178754,23.1211812,天河区,商场,普通商场
B00140C3FH,天河都市广场,113.3570781,23.1220202,天河区,商场,普通商场
B0G3F7N7BH,四特酒百信购物中心(花城汇南区店),113.3190261,23.1203803,天河区,商场,购物中心
B0FFF3UWUJ,地中海聚宝商业城(环市西路),113.2512613,23.1492429,越秀区,商场,普通商场
B0FFHOYQWG,广州友谊商店北区,113.282035,23.1406545,越秀区,商场,购物中心
B00140CJD4,广州友谊商店,113.282071,23.1399967,越秀区,商场,购物中心
B0FFHOYQWI,广州友谊商店南区,113.2822647,23.1395156,越秀区,商场,购物中心
B00140V9PL,时代广场(天河北路店),113.3118293,23.1428939,天河区,商场,购物中心
B00140BYQK,友谊Outlets购物中心(时代广场),113.3118164,23.1428809,天河区,商场,购物中心
B0FFFJ8CR7,天河北100生活馆(光华大厦店),113.3138871,23.1432788,天河区,商场,普通商场
B0IAJZT3ZG,III VIVINIKO(广州友谊商店店),113.282035,23.1406545,越秀区,商场,免税品店
B0FFFS9X3R,天河汇商业广场,113.3118793,23.1419102,天河区,商场,购物中心
B0FFIR1OK7,igc女装(天盈广场西塔店),113.3255857,23.1188234,天河区,商场,普通商场
B00140UFM7,光明广场,113.2620287,23.1249177,越秀区,商场,购物中心
B00141S1QV,骏亿汇,113.2622075,23.1260101,越秀区,商场,普通商场
B0FFHMLS5Q,骏亿外贸城(骏亿汇店),113.2621855,23.1259051,越秀区,商场,商场
B0FFHIO4SC,克劳拉尔(时代广场店),113.3122016,23.143203,天河区,商场,免税品店
B00141R53D,金佰利广场,113.2655967,23.125072,越秀区,商场,购物中心
B0FFF3B6C7,金佰利广场,113.2657016,23.1247701,越秀区,商场,普通商场
B00140UNTH,恒润广场,113.2647854,23.1253915,越秀区,商场,普通商场
B0FFHY71E9,淘金商贸中心,113.2825572,23.1411856,越秀区,商场,普通商场
B0JKPL142S,恒润广场北区,113.2647964,23.1254765,越秀区,商场,普通商场
B00140U188,海印缤缤广场,113.2593262,23.1180581,越秀区,商场,购物中心
B0J3GDBL7W,吉泰万菱广场,113.2574994,23.1175463,越秀区,商场,商场
B00140263A,德宝交易广场,113.2558714,23.1167263,越秀区,商场,普通商场
B0I1VC561S,SHOP(广州友谊商业大厦店),113.2821518,23.1404434,越秀区,商场,免税品店
B0FFKD9ZU2,星寰国际商业中心,113.2587067,23.1162532,越秀区,商场,商场
B0G19XCHL0,富基商城(富基广场2期店),113.265282,23.1096616,海珠区,商场,普通商场
B00140B1Y6,海印广场,113.2792305,23.1173004,越秀区,商场,购物中心
B0FFK7SFZ6,时尚天河商业广场东区,113.3204132,23.1366051,天河区,商场,商场
B0FFK7R9YB,时尚天河商业广场西区(广州天河体育中心店),113.3196617,23.1364686,天河区,商场,商场
B0FFK7JJ5M,时尚天河商业广场中区,113.3197954,23.1365013,天河区,商场,商场
B0FFG1OCOA,天环Parc Central,113.3192776,23.134848,天河区,商场,购物中心
B0FFJ9SWQX,天环广场西塔,113.3188764,23.1349647,天河区,商场,购物中心
B0FFIL1M1U,太古汇(天河路店),113.3277501,23.1361822,天河区,商场,购物中心
B0FFM39IEU,236广场,113.3267502,23.1352705,天河区,商场,商场
B0GR1O0DQ8,PERRVS(华龙大厦店),113.3267702,23.1354454,天河区,商场,免税品店
B0JGXLBLEG,正佳,113.3206169,23.1347924,天河区,商场,商场
B00140TFHO,正佳广场,113.3215909,23.1347316,天河区,商场,购物中心
B00141JO30,太古汇,113.3270395,23.1367934,天河区,商场,购物中心
B0FFIDH2ZP,岗顶1站广场,113.3363377,23.1386401,天河区,商场,普通商场
B00141IK9A,万菱汇,113.324898,23.135335,天河区,商场,购物中心
B0FFJ9SWR1,天环Parc Central东塔,113.3200221,23.1347416,天河区,商场,购物中心
B00140AGGW,广州友谊商店(正佳广场店),113.3216179,23.1340868,天河区,商场,商场
B0JGD7HW62,地中海·壹荟ONE MOMENT,113.3313618,23.1360175,天河区,商场,普通商场
B0HDGKMDTS,大利国际时装城,113.3048105,23.154872,天河区,商场,购物中心
B0JRG72MF6,尚品天河,113.3326242,23.1358642,天河区,商场,普通商场
B00140U0SG,中华广场,113.2771885,23.1284323,越秀区,商场,普通商场
B00140TYEH,广百广场(天河中怡店),113.3155672,23.1356047,天河区,商场,购物中心
B0FFLKU9WL,莱福广场,113.333172,23.1378213,天河区,商场,普通商场
B00140GGZL,摩登百货(岗顶店),113.3336151,23.1382204,天河区,商场,普通商场
B00140UNW6,天娱广场,113.3345412,23.1382636,天河区,商场,购物中心
B0FFG3OD5X,丽特百货(天娱广场),113.3345103,23.1382307,天河区,商场,商场
B0FFI2O00I,百货楼(摩登百货店),113.3338776,23.137776,天河区,商场,普通商场
B0FFJ9T00Q,天河城百货(天河城店),113.3174843,23.1349643,天河区,商场,普通商场
B00141UE4E,天河城,113.3171859,23.1349279,天河区,商场,购物中心
B00141I8CX,天河又一城,113.3172169,23.1349249,天河区,商场,普通商场
B0FFG208AU,沙河广场,113.3050132,23.153811,天河区,商场,普通商场
B0FFF5L3BR,百货休闲馆(天河城店),113.3175003,23.1349023,天河区,商场,普通商场
B00140SDK5,广百百货(北京路店),113.2629979,23.1262964,越秀区,商场,普通商场
B00140BLHS,万菱广场,113.2571716,23.1172455,越秀区,商场,购物中心
B0GUK7G6LJ,广州百货大厦,113.2629199,23.1263195,越秀区,商场,商场
B0FFHK25TC,龙凤商场,113.2499761,23.0986347,海珠区,商场,普通商场
B0FFK8IDCL,金海港商业广场,113.2490042,23.0860272,海珠区,商场,普通商场
B0014024CF,新安购物广场,113.2707165,23.0965213,海珠区,商场,购物中心
B00140VAIL,家信商业中心,113.2524565,23.0937451,海珠区,商场,普通商场
B0GKBCHNUJ,羊城秀艺术商业中心,113.3010526,23.0981985,海珠区,商场,商场
B0FFH16JBM,广百海港汇(建设中),113.2862261,23.0589087,海珠区,商场,购物中心
B0FFGBWTV0,凤凰展贸易城,113.2525263,23.0967938,海珠区,商场,普通商场
B00141RDRH,万联购物中心,113.2747632,23.1050037,海珠区,商场,购物中心
B00140URTF,金谷广场,113.2709577,23.1044268,海珠区,商场,购物中心
B0H6MUH9AE,优乐购商业广场(广州赤沙商业街店),113.3500348,23.088082,海珠区,商场,普通商场
B00141R9KU,四季天地,113.3229003,23.1034079,海珠区,商场,普通商场
B0FFHOJ7FF,四季天地南座,113.322557,23.1028268,海珠区,商场,普通商场
B0FFH11F5K,四季天地北座,113.3229811,23.1037196,海珠区,商场,普通商场
B0FFLKMAWG,蕙海商业中心,113.3306655,23.1013629,海珠区,商场,普通商场
B00141RDXP,纵横广场,113.3251819,23.0984096,海珠区,商场,购物中心
B00140M2GP,风樯广场·客村,113.3121133,23.0908556,海珠区,商场,购物中心
B0FFKTDLUU,乐ALEMAMA服装店(财智大厦店),113.3091716,23.0995045,海珠区,商场,免税品店
B0FFH0NT9D,丽影广场D区,113.3133303,23.0983192,海珠区,商场,商场
B0H33LWONA,广州市南丰汇商场,113.3516083,23.1006763,海珠区,商场,商场
B00140MALN,状元坊(前进路),113.2701845,23.1046494,海珠区,商场,普通商场
B0FFH4VFTN,云顶乌托邦,113.3085866,23.0886251,海珠区,商场,普通商场
B00141JIFD,合生广场,113.3086006,23.0878374,海珠区,商场,普通商场
B0HKOUGUZL,Crying Center,113.3179992,23.0916611,海珠区,商场,普通商场
B00140U2C2,六福商业广场,113.3216418,23.089685,海珠区,商场,购物中心
B0FFJACT9A,合生广场耐克,113.3084549,23.0878127,海珠区,商场,普通商场
B0H0ORZ2T9,健康港星河COCO Park,113.2533423,23.0617333,荔湾区,商场,购物中心
B0IAG7CAMA,正兴堂(广州国际医药港店),113.2520928,23.0617877,荔湾区,商场,商场
B00141J19J,乐满多购物商场,113.2482738,23.065503,荔湾区,商场,普通商场
B0FFJS6877,沥滘时尚天地,113.3101521,23.0637677,海珠区,商场,普通商场
B00140VB15,华泰服装商场,113.3440413,23.0749696,海珠区,商场,普通商场
B0FFLLAJ7G,若比邻社区商业中心,113.2649926,23.1047988,海珠区,商场,普通商场
B00140U2Z6,海逸购物广场,113.2657929,23.1045843,海珠区,商场,普通商场
B0HBRP5F3Q,新一城XMALL A区,113.2607956,23.0964432,海珠区,商场,购物中心
B0FFL7Z7LZ,广百广场(海珠新一城店),113.2607696,23.0964402,海珠区,商场,购物中心
B0G3MU1BPK,南康阁商业城,113.2613851,23.0969466,海珠区,商场,商场
B0IA3XJRCH,victory,113.2674744,23.1025697,海珠区,商场,商场
B0FFG4G61W,可逸倾城,113.2590276,23.0988382,海珠区,商场,普通商场
B0FFITDN6V,江南新汇,113.2578097,23.0944996,海珠区,商场,普通商场
B0FFF9TQA9,江南西·名店城,113.2677894,23.098822,海珠区,商场,普通商场
B0FFGL1E36,丽日商业广场,113.2679551,23.1004872,海珠区,商场,普通商场
B00141KFWJ,富力海珠城B区,113.2686096,23.0980206,海珠区,商场,购物中心
B0FFGXLZHY,富力海珠城,113.2684807,23.0981367,海珠区,商场,普通商场
B0FFH11N97,富力海珠城A区,113.268167,23.0984169,海珠区,商场,购物中心
B0G279F4FE,中船汇,113.2498396,23.0916566,海珠区,商场,普通商场
B00141R8NA,乐峰广场,113.2537581,23.0913287,海珠区,商场,购物中心
B0H0RN6YNH,海珠新天地,113.2557003,23.0895677,海珠区,商场,普通商场
B00140BTWR,江南综合商场(玫瑰二街),113.2699523,23.0956534,海珠区,商场,普通商场
B0J2TU2V02,广州京东MALL(海珠新天地店),113.2554354,23.0901355,海珠区,商场,购物中心
B00140BO2B,信和广场,113.2694821,23.0922253,海珠区,商场,购物中心
B0HAMS1S15,碧乐时光(广州广美店),113.2725585,23.0942894,海珠区,商场,商场
B0I24PFOEH,蓝天里,113.270333,23.0954531,海珠区,商场,普通商场
B0FFG8E84P,达镖国际中心商场,113.2711343,23.0922407,海珠区,商场,商场
B0FFGJV5ZH,江南坊,113.2730939,23.09402,海珠区,商场,普通商场
B0FFH12DTO,Mall商场(广州珀丽酒店写字楼店),113.2704979,23.0933399,海珠区,商场,普通商场
B0JRV4IRKS,达镖SPACE(达镖国际中心商场店),113.2707507,23.0922581,海珠区,商场,商场
B0H3DRVBVM,长乐饼屋(礼岗店),113.2736396,23.0888716,海珠区,商场,免税品店
B0FFGIIJ0M,金豪商场,113.3023438,23.1038579,海珠区,商场,普通商场
B00141SIOE,东银大厦,113.2776057,23.1021226,海珠区,商场,普通商场
B0HASC8C2D,潮达新港城,113.2838194,23.0959134,海珠区,商场,商场
B0IDV7LNFL,中大·合悦Hey Park(富景花园店),113.2842228,23.0949662,海珠区,商场,普通商场
B0GU77GQBE,大信·新都汇(潮达新港城店),113.2836616,23.0957996,海珠区,商场,商场
B0I1THALFX,汇升购物广场(中信·乐涛苑店),113.3032232,23.1019752,海珠区,商场,商场
B00141JFBY,T.I.T润政广场,113.2735419,23.0862308,海珠区,商场,普通商场
B00141RF36,江泰广场,113.2751591,23.0838481,海珠区,商场,普通商场
B0G2GGNLAK,宏鑫商场,113.3006291,23.0884753,海珠区,商场,普通商场
B0FFI2UTD5,广纸天地荟,113.2631211,23.0767849,海珠区,商场,普通商场
B0FFLKK7H3,逸佳购物城,113.276646,23.0718835,海珠区,商场,普通商场
B0FFGOA524,万科里购物中心(江燕路店),113.2738696,23.0852269,海珠区,商场,购物中心
B0FFH1ZL8S,珠江时尚馆,113.2971358,23.0852266,海珠区,商场,普通商场
B0GUNCIQ7N,海珠合生新天地,113.2966038,23.0837771,海珠区,商场,购物中心
B0FFHMZZNO,通和商城,113.3036431,23.0907391,海珠区,商场,商场
B0FFM47YQS,瑞宝制衣城第18栋,113.2943322,23.0793207,海珠区,商场,普通商场
B0FFHFTQ7P,盈熙广场,113.2823089,23.0762426,海珠区,商场,普通商场
B0HDZS0WVN,海珠城光荟广场,113.2870128,23.0752206,海珠区,商场,普通商场
B0FFHTJ9X6,馨润·港荟,113.2919818,23.0712558,海珠区,商场,购物中心
B00141S15T,魅力港湾(侨港路),113.287001,23.0730046,海珠区,商场,普通商场
B00141R5R4,金碧都市广场,113.2816633,23.0705659,海珠区,商场,购物中心
B00141IAO8,好信广场,113.2968691,23.0724225,海珠区,商场,普通商场
B0HG75LY9Z,摩登广场(海珠店),113.2942008,23.0738882,海珠区,商场,普通商场
B00141S1XP,新港商业城,113.3202591,23.0980981,海珠区,商场,普通商场
B0I1T6Z6TS,新港城(新港商业城店),113.3203429,23.0985088,海珠区,商场,普通商场
B00141TJQS,珠影·星光城,113.3157784,23.0971551,海珠区,商场,商场
B00140U74U,丽影广场B区,113.3160488,23.09839,海珠区,商场,商场
B00140U74J,丽影广场,113.3152833,23.0983745,海珠区,商场,商场
B00140TCFB,丽影广场A区(新港中路),113.3171545,23.098293,海珠区,商场,商场
B0HU4HLHJ0,珠江荟,113.3242755,23.0882226,海珠区,商场,商场
B0FFLANKJF,桂田广场,113.3107947,23.0942107,海珠区,商场,商场
B00141J4HP,敦皇商业城,113.3109895,23.092421,海珠区,商场,普通商场
B0FFM6HXIL,琶洲博艺商厦商场,113.3633628,23.0983723,海珠区,商场,普通商场
B0KDUUBE1E,广州新都荟广场九号店,113.2881819,23.075008,海珠区,商场,购物中心
B00141JDC8,丽影广场C区,113.3146067,23.0983908,海珠区,商场,普通商场
B0FFKHJOGH,万达广场(广州海珠店),113.3081935,23.0859859,海珠区,商场,购物中心
B0FFHPCZ6J,合生广场南区,113.30841,23.0875039,海珠区,商场,商场
B0FFISG658,万德信百货(上冲南店),113.3131399,23.0812717,海珠区,商场,普通商场
B00141S13S,湖景商业广场,113.316027,23.0811273,海珠区,商场,普通商场
B00140T6RF,东鸿百货,113.3312266,23.0838772,海珠区,商场,商场
B0FFFVP31T,孖发实惠商场(大塘社区店),113.3151634,23.0860419,海珠区,商场,普通商场
B0GKRZADAJ,Hi City MALL,113.2905805,23.0670558,海珠区,商场,商场
B0HALO62BK,HI·CITY,113.2904058,23.0667532,海珠区,商场,普通商场
B0FFL0ZSG3,优客龙全球购物专家(宝丰街店),113.2889899,23.0700799,海珠区,商场,免税品店
B00141W7Y4,怡达百货商场,113.3138023,23.0697953,海珠区,商场,商场
B0HBRX6UQ3,新一城X-MALL-C区(海珠新一城广百广场店),113.2606327,23.0956436,海珠区,商场,商场
B00141I9WG,万国奥特莱斯,113.26781,23.1044627,海珠区,商场,购物中心
B00141R8OS,新一城B区,113.2614372,23.0950223,海珠区,商场,普通商场
B00140PT0V,佳都商贸中心,113.2682045,23.0899784,海珠区,商场,普通商场
B0G1N537O3,海珠·合生生活天地,113.2698947,23.0912153,海珠区,商场,普通商场
B0FFK4XZ9L,美景中心,113.2876615,23.0942297,海珠区,商场,普通商场
B0FFGOF65E,广州国际轻纺城饰品区,113.2943004,23.0915506,海珠区,商场,普通商场
B00140UVO5,燕汇广场,113.2721347,23.0847009,海珠区,商场,普通商场
B00141RHJ7,中大其佳商贸城,113.290656,23.0880958,海珠区,商场,普通商场
B0FFJWA5RB,鱼沙坦商业广场,113.3742028,23.2140685,天河区,商场,普通商场
B00141JDHS,太古仓54汇,113.2471913,23.0915801,海珠区,商场,商场
B0FFHWIDJ0,花地·好邻舍商业中心西区,113.2237107,23.0978475,荔湾区,商场,购物中心
B00141QX93,花地·好邻舍商业中心,113.224113,23.0981157,荔湾区,商场,购物中心
B0I62CH7NQ,广百广场,113.2277544,23.0813632,荔湾区,商场,普通商场
B0G2M10RQW,荔胜广百广场北塔,113.2278215,23.0812383,荔湾区,商场,购物中心
B0H06DBZK2,中海花湾天地(广钢新城),113.2343879,23.0716297,荔湾区,商场,商场
B0G12KIEGS,芳和荟广场,113.2239831,23.0799802,荔湾区,商场,商场
B0FFLFM0FC,星际汇商业中心,113.2075751,23.0788838,荔湾区,商场,商场
B0FFLK08XV,葵篷商业城(中联茶文化创意园店),113.2110512,23.0943946,荔湾区,商场,普通商场
B0FFG0G89O,沃野广场,113.2124616,23.052376,荔湾区,商场,购物中心
B0GKV75MVC,新诚顺隆,113.2243995,23.0487148,荔湾区,商场,免税品店
B0FFKFRM9D,小廖的店,113.2161243,23.0976788,荔湾区,商场,免税品店
B00141IEY8,东百花地湾百货(东山百货花地湾店),113.2276305,23.093697,荔湾区,商场,普通商场
B0FFGOFP4X,壹号文化广场,113.2280475,23.0974207,荔湾区,商场,普通商场
B0IG3U74E6,璞钧岩彩堂,113.1991735,23.0660336,荔湾区,商场,商场
B0HKO5LV7Z,广州塔东,113.321446865952,23.10966607529833,海珠区,商场,商场
B0G39SO35I,vanke(花地大道北店),113.22966411289528,23.08593244178161,荔湾区,商场,普通商场
B0J2O5B9IQ,原生态泉水鸡,113.32444132650784,23.15907453200193,天河区,商场,商场
B0GRDCI6FR,马莎百货(正佳广场店),113.32157090441736,23.134735636024185,天河区,商场,普通商场
B0FFL2UVTE,二层商场(高德置地广场·夏店),113.31784639382552,23.12286754546924,天河区,商场,普通商场
B0FFGPWBL9,东圃电子烟集合店,113.39819689871914,23.1231076465254,天河区,商场,购物中心
B00140SI99,广州动漫星城广场(中山五路),113.2596182605603,23.12842970408311,越秀区,商场,普通商场
B0JKPL142T,恒润广场南区,113.26531995802708,23.124819340685967,越秀区,商场,普通商场
B0KGZUVD03,百莲凯盛悦广场店,113.23364928326416,23.12284408253394,荔湾区,商场,购物中心
B0JUAGHC3R,华晟商场(华侨大厦店),113.26208513752988,23.11809839104748,越秀区,商场,普通商场
B0GRHMS3C0,开元(海印缤缤广场店),113.25939409286796,23.11832393758713,越秀区,商场,商场
B0FFL35NYT,韵怡店,113.28429168395787,23.125016733481534,越秀区,商场,免税品店
B0G0D7AMEE,平安商厦,113.23938583710476,23.13362445327773,荔湾区,商场,普通商场
B0FFI9DDDO,穗普行(清平大厦店),113.23946528350749,23.112176187113064,荔湾区,商场,免税品店
