id,name,longitude,latitude,adname,中类,小类
BX10022450,高塘石地铁站B口,113.40555779628728,23.19302622119184,天河区,地铁站,出入口
BX09900297,高塘石地铁站D口,113.4042960781979,23.193932426531543,天河区,地铁站,出入口
BX10022451,高塘石地铁站A口,113.4043351499446,23.19316771967713,天河区,地铁站,出入口
BX09907452,龙溪地铁站C口,113.18668530597684,23.06886316286846,荔湾区,地铁站,出入口
BX09907451,龙溪地铁站A口,113.18737553084291,23.06822462826645,荔湾区,地铁站,出入口
BX09900299,柯木塱地铁站C1口,113.39213562994529,23.196467671139168,天河区,地铁站,出入口
BX09900298,柯木塱地铁站C2口,113.3917406844086,23.19636079157666,天河区,地铁站,出入口
BX10023133,柯木塱地铁站A口,113.38979207883324,23.195587573064703,天河区,地铁站,出入口
BX10023280,柯木塱地铁站B口,113.39120780947854,23.195639175062244,天河区,地铁站,出入口
BX09907463,梅花园地铁站D口,113.31480395816374,23.177047034866,天河区,地铁站,出入口
BX09907462,梅花园地铁站B口,113.3154355770438,23.17832036035177,天河区,地铁站,出入口
BX10017853,官洲地铁站A口,113.37061619237392,23.069761942622307,海珠区,地铁站,出入口
BX10017908,五山地铁站A口,113.34653031839996,23.15555741171976,天河区,地铁站,出入口
BX10017854,官洲地铁站B口,113.37101883017289,23.06891588604612,海珠区,地铁站,出入口
BX10017855,官洲地铁站D口,113.37103573324718,23.070075375776725,海珠区,地铁站,出入口
BX10017906,五山地铁站B1口,113.346674100644,23.15498839113336,天河区,地铁站,出入口
BX10017907,五山地铁站C口,113.3461330780862,23.154855358261653,天河区,地铁站,出入口
BX10017852,官洲地铁站C口,113.3716631225091,23.069622930981144,海珠区,地铁站,出入口
BX10017912,大塘地铁站D口,113.3166746447792,23.081039132690982,海珠区,地铁站,出入口
BX10017820,坦尾地铁站B口,113.2124554904584,23.128197317157685,荔湾区,地铁站,出入口
BX10017821,坦尾地铁站C口,113.21232738609169,23.12765639026064,荔湾区,地铁站,出入口
BX10017817,坦尾地铁站D口,113.21291197336537,23.128406747052846,荔湾区,地铁站,出入口
BX10017816,坦尾地铁站G口,113.21299305798706,23.128450819975345,荔湾区,地铁站,出入口
BX10017819,坦尾地铁站J口,113.2127087868617,23.127901722890865,荔湾区,地铁站,出入口
BX10017815,坦尾地铁站I口,113.21295507452211,23.12759312412552,荔湾区,地铁站,出入口
BX10017975,滘口地铁站B2口,113.20398283839585,23.11745503284635,荔湾区,地铁站,出入口
BX10017843,河沙地铁站A口,113.212400731403,23.13861507169135,荔湾区,地铁站,出入口
BX10017818,坦尾地铁站F口,113.21334745281258,23.128234301611347,荔湾区,地铁站,出入口
BX10017970,中山八地铁站D口,113.2265205356081,23.12854093262725,荔湾区,地铁站,出入口
BX10017844,河沙地铁站B口,113.21264907371732,23.13756177333424,荔湾区,地铁站,出入口
BX10017753,如意坊地铁站A口,113.22562368218456,23.11800660015459,荔湾区,地铁站,出入口
BX09900732,菊树地铁站B口,113.20800836352824,23.067724126722,荔湾区,地铁站,出入口
BX09900731,菊树地铁站A口,113.20693099286338,23.06812157883897,荔湾区,地铁站,出入口
BX10018162,菊树地铁站D口,113.207260345724,23.069041612709945,荔湾区,地铁站,出入口
BX10018161,菊树地铁站C口,113.20787411137192,23.06901640728008,荔湾区,地铁站,出入口
BX10017974,滘口地铁站B1口,113.20346318256672,23.116749603796787,荔湾区,地铁站,出入口
BX10017968,中山八地铁站F口,113.22727595472784,23.12897225253351,荔湾区,地铁站,出入口
BX10017971,中山八地铁站A口,113.2276022045298,23.128033838710657,荔湾区,地铁站,出入口
BX10017969,中山八地铁站B口,113.22829556346775,23.12840611572763,荔湾区,地铁站,出入口
BX10017754,如意坊地铁站B口,113.2267053900924,23.117457560323626,荔湾区,地铁站,出入口
BX10017972,滘口地铁站A1口,113.203015621089,23.116005284832728,荔湾区,地铁站,出入口
BX10017973,滘口地铁站A2口,113.20274230071304,23.115176241064145,荔湾区,地铁站,出入口
BX10017728,西塱地铁站A口,113.22706897715928,23.067099848358524,荔湾区,地铁站,出入口
BX10017730,西塱地铁站B口,113.22693690189548,23.06706177863436,荔湾区,地铁站,出入口
BX10017681,花地湾地铁站D口,113.2285603389,23.089091480778627,荔湾区,地铁站,出入口
BX10017680,花地湾地铁站C口,113.22837315287994,23.09037682995541,荔湾区,地铁站,出入口
BX10017731,西塱地铁站D口,113.2282794833493,23.06973848487653,荔湾区,地铁站,出入口
BX10035853,西塱地铁站G口,113.22811434111792,23.07052105208229,荔湾区,地铁站,出入口
BX10021611,西塱地铁站F口,113.22882671946812,23.07055146513081,荔湾区,地铁站,出入口
BX10017708,坑口地铁站D口,113.22691994549506,23.081207773382896,荔湾区,地铁站,出入口
BX10017705,坑口地铁站A口,113.2273191826901,23.08115205493424,荔湾区,地铁站,出入口
BX10017707,坑口地铁站C口,113.22703996486288,23.081976527352897,荔湾区,地铁站,出入口
BX10017706,坑口地铁站B口,113.22737916527468,23.08192876564193,荔湾区,地铁站,出入口
BX10022448,龙洞地铁站D口,113.37117808137528,23.1939326757316,天河区,地铁站,出入口
BX10022465,植物园地铁站G口,113.35920118204623,23.19181800547761,天河区,地铁站,出入口
BX10022461,植物园地铁站F口,113.35972836753774,23.192596987933733,天河区,地铁站,出入口
BX10022134,龙洞地铁站A口,113.3714128844524,23.19329467044319,天河区,地铁站,出入口
BX10022449,龙洞地铁站B口,113.37271859519448,23.19314143369621,天河区,地铁站,出入口
BX10022460,植物园地铁站C口,113.36122119846712,23.193501627041783,天河区,地铁站,出入口
BX10022462,植物园地铁站D口,113.36064597194202,23.193936242459635,天河区,地铁站,出入口
BX10022463,植物园地铁站B口,113.36051724807618,23.192555922691767,天河区,地铁站,出入口
BX10022464,植物园地铁站A口,113.36008091154618,23.19189875924445,天河区,地铁站,出入口
BX10017869,长湴地铁站C口,113.34379751066729,23.18139121487672,天河区,地铁站,出入口
BX10017722,黄沙地铁站E口,113.23612772608932,23.11191644889786,荔湾区,地铁站,出入口
BX10017719,黄沙地铁站F口,113.23525851187384,23.11180320672836,荔湾区,地铁站,出入口
BX10017868,长湴地铁站A口,113.34393532579816,23.18038435285793,天河区,地铁站,出入口
BX10017721,黄沙地铁站D口,113.23414214595792,23.11236456371155,荔湾区,地铁站,出入口
BX10017884,天平架地铁站A口,113.31590872630414,23.16186274318196,天河区,地铁站,出入口
BX09907531,小北地铁站A口,113.27033083246548,23.14189317992325,越秀区,地铁站,出入口
BX10020617,广州塔地铁站出入口,113.3184750057661,23.10952381305945,海珠区,地铁站,出入口
BX10020616,广州塔地铁站出入口,113.31847506493878,23.10865117294633,海珠区,地铁站,出入口
BX10017640,广州塔地铁站A口,113.31759582104743,23.109456516174507,海珠区,地铁站,出入口
BX10017641,广州塔地铁站B口,113.3174581794802,23.10835023466039,海珠区,地铁站,出入口
BX10028618,天河智慧城地铁站D口,113.3973748775374,23.16509497833229,天河区,地铁站,出入口
BX10027354,天河智慧城地铁站A口,113.39812901464708,23.164888093130216,天河区,地铁站,出入口
BX10027353,天河智慧城地铁站B口,113.3979788991158,23.166179587888355,天河区,地铁站,出入口
BX10017723,黄沙地铁站C口,113.23435312701017,23.11362912571015,荔湾区,地铁站,出入口
BX10017720,黄沙地铁站B口,113.23481724200336,23.113981154581182,荔湾区,地铁站,出入口
BX10028619,天河智慧城地铁站C口,113.39734178132592,23.166424466715625,天河区,地铁站,出入口
BX10017885,天平架地铁站B口,113.31602744502162,23.162414304939404,天河区,地铁站,出入口
BX09907551,磨碟沙地铁站H口,113.33796081696484,23.104654008257832,海珠区,地铁站,出入口
BX09907532,小北地铁站D口,113.2707902960296,23.14242253263168,越秀区,地铁站,出入口
BX10027345,大观南路地铁站B口,113.40112799716816,23.14720037596812,天河区,地铁站,出入口
BX09907520,文化公园地铁站E口,113.24301545776554,23.111456919499016,荔湾区,地铁站,出入口
BX09907529,小北地铁站B口,113.272130835888,23.141790469182048,越秀区,地铁站,出入口
BX09907530,小北地铁站C口,113.27244743335746,23.14236492180977,越秀区,地铁站,出入口
BX10017808,沙河顶地铁站B口,113.30148426518248,23.15002876789753,天河区,地铁站,出入口
BX09907554,车陂南地铁站A口,113.38338277809164,23.11815141783237,天河区,地铁站,出入口
BX09907555,车陂南地铁站C口,113.38521187201448,23.118683238792062,天河区,地铁站,出入口
BX09907491,东圃地铁站A口,113.39630243603752,23.11147135982464,天河区,地铁站,出入口
BX09907490,东圃地铁站B口,113.39582032119264,23.112582916069016,天河区,地铁站,出入口
BX09907568,黄村地铁站H口,113.40051851838324,23.136824387572062,天河区,地铁站,出入口
BX10027346,大观南路地铁站A口,113.40114606255892,23.146335720965524,天河区,地铁站,出入口
BX09907553,车陂南地铁站B口,113.38554980317308,23.1175885234406,天河区,地铁站,出入口
BX09907647,科韵路地铁站A口,113.37095529404942,23.12144803666228,天河区,地铁站,出入口
BX09907649,科韵路地铁站C口,113.37104214678406,23.122281608046155,天河区,地铁站,出入口
BX10020389,鹤洞地铁站B口,113.2351718981998,23.07580721303856,荔湾区,地铁站,出入口
BX10020388,鹤洞地铁站C口,113.23425966763529,23.07525111207735,荔湾区,地铁站,出入口
BX09907643,员村地铁站D口,113.3580059938471,23.118159393651645,天河区,地铁站,出入口
BX09907646,员村地铁站E口,113.3578163233401,23.11747694398979,天河区,地铁站,出入口
BX09907641,员村地铁站C口,113.35869794223495,23.118589236535424,天河区,地铁站,出入口
BX10017887,三溪地铁站C口,113.41002066421936,23.107004154990666,天河区,地铁站,出入口
BX10017886,三溪地铁站B口,113.41094942921654,23.10665587219034,天河区,地铁站,出入口
BX09902205,三溪地铁站A1口,113.40999970103644,23.106230462320028,天河区,地铁站,出入口
BX09902204,三溪地铁站A2口,113.41075531920256,23.10594904143173,天河区,地铁站,出入口
BX10020387,燕岗地铁站B口,113.26670985135368,23.07742091010488,海珠区,地铁站,出入口
BX10020386,燕岗地铁站D口,113.26649699495644,23.07829171565617,海珠区,地铁站,出入口
BX09907648,科韵路地铁站B口,113.3721261238164,23.121171968111256,天河区,地铁站,出入口
BX10033913,龙潭地铁站C口,113.33541218645016,23.08445112849951,海珠区,地铁站,出入口
BX09907548,磨碟沙地铁站C口,113.3358182672236,23.10085251475656,海珠区,地铁站,出入口
BX09907550,磨碟沙地铁站B口,113.33579426951172,23.10151228489045,海珠区,地铁站,出入口
BX09907552,磨碟沙地铁站J1口,113.3380757657603,23.1021358432973,海珠区,地铁站,出入口
BX09907547,磨碟沙地铁站E1口,113.33857280363782,23.102134940570547,海珠区,地铁站,出入口
BX09907450,沙涌地铁站C口,113.24109515198911,23.08607530509808,荔湾区,地铁站,出入口
BX09907448,沙涌地铁站A口,113.24094219069528,23.08539557084205,荔湾区,地铁站,出入口
BX09907645,员村地铁站B口,113.35874292206375,23.117921446130385,天河区,地铁站,出入口
BX09907644,员村地铁站F口,113.35774048647508,23.116750350057803,天河区,地铁站,出入口
BX10018086,南洲地铁站C1口,113.29326791363164,23.06677773084215,海珠区,地铁站,出入口
BX10018087,南洲地铁站C2口,113.2926909252627,23.06665069556138,海珠区,地铁站,出入口
BX10018088,南洲地铁站B口,113.29228964645787,23.06623550138088,海珠区,地铁站,出入口
BX10033622,龙潭地铁站B口,113.33618176989062,23.08298832429937,海珠区,地铁站,出入口
BX09901892,龙潭地铁站D口,113.3354721683536,23.082978637956167,海珠区,地铁站,出入口
BX09907549,磨碟沙地铁站J2口,113.33807574098051,23.102499692301585,海珠区,地铁站,出入口
BX09907546,磨碟沙地铁站E2口,113.33857178078358,23.10249879138433,海珠区,地铁站,出入口
BX10026409,沥滘地铁站B口,113.31312651942692,23.057212967628136,海珠区,地铁站,出入口
BX10026410,沥滘地铁站A口,113.31296182309124,23.057678077871984,海珠区,地铁站,出入口
BX10017957,沥滘地铁站E口,113.31396580702416,23.057237378367937,海珠区,地铁站,出入口
BX10018072,东晓南地铁站A口,113.28986025871544,23.07372704774092,海珠区,地铁站,出入口
BX10036093,沥滘地铁站F口,113.31392684874616,23.057795213139112,海珠区,地铁站,出入口
BX09907449,沙涌地铁站B口,113.24187920024478,23.08565657034153,荔湾区,地铁站,出入口
BX10017678,花地湾地铁站A口,113.2290425858682,23.08915873514141,荔湾区,地铁站,出入口
BX09907642,员村地铁站A口,113.35847541749618,23.11642743503025,天河区,地铁站,出入口
BX10020775,南洲地铁站D口,113.2927836814255,23.06788302511024,海珠区,地铁站,出入口
BX10026412,南洲地铁站A口,113.29184833736682,23.0672327643916,海珠区,地铁站,出入口
BX10017714,芳村地铁站A1口,113.23068559642576,23.100805771912235,荔湾区,地铁站,出入口
BX10017717,芳村地铁站A2口,113.23043850845949,23.100442793766668,荔湾区,地铁站,出入口
BX10017718,芳村地铁站B2口,113.23108973376593,23.10142172221604,荔湾区,地铁站,出入口
BX10017715,芳村地铁站B1口,113.2311017002654,23.1019994883706,荔湾区,地铁站,出入口
BX09907557,石溪地铁站B口,113.2810741322791,23.07005886716486,海珠区,地铁站,出入口
BX10017778,中大地铁站A口,113.288710739411,23.09476490636493,海珠区,地铁站,出入口
BX10017777,中大地铁站D口,113.28855104881052,23.09405044090805,海珠区,地铁站,出入口
BX10018074,东晓南地铁站B口,113.28905953177096,23.074513913394284,海珠区,地铁站,出入口
BX10017679,花地湾地铁站B口,113.22886440841056,23.0904370957885,荔湾区,地铁站,出入口
BX10017716,芳村地铁站D口,113.22985918213128,23.101248148045546,荔湾区,地铁站,出入口
BX10017713,芳村地铁站C口,113.23002321570308,23.10191795928047,荔湾区,地铁站,出入口
BX09907558,石溪地铁站A口,113.28010746748409,23.07052688916619,海珠区,地铁站,出入口
BX09907556,石溪地铁站D口,113.28029916193242,23.071073417051142,海珠区,地铁站,出入口
BX10020911,中大地铁站C2口,113.28735795143392,23.09447400699101,海珠区,地铁站,出入口
BX10017913,大塘地铁站B口,113.31594719278884,23.08023785175609,海珠区,地铁站,出入口
BX10017914,大塘地铁站A口,113.3160369321772,23.08136520563404,海珠区,地铁站,出入口
BX09907610,赤岗地铁站C1口,113.32858596726965,23.09830414627282,海珠区,地铁站,出入口
BX10017766,新港东地铁站F口,113.35176302866638,23.10084194101295,海珠区,地铁站,出入口
BX10017767,新港东地铁站D口,113.3509663593444,23.1008711959179,海珠区,地铁站,出入口
BX09907536,万胜围地铁站B口,113.37996507879436,23.0995692384991,海珠区,地铁站,出入口
BX09907533,万胜围地铁站C口,113.38039771966004,23.10065348931644,海珠区,地铁站,出入口
BX10017768,新港东地铁站A口,113.35184883071868,23.10165146903664,海珠区,地铁站,出入口
BX09907611,赤岗地铁站C2口,113.32923361352044,23.09880870637391,海珠区,地铁站,出入口
BX10018073,东晓南地铁站C1口,113.28818996530342,23.07434327050296,海珠区,地铁站,出入口
BX10018071,东晓南地铁站C2口,113.28839765771272,23.07389315615381,海珠区,地铁站,出入口
BX09907534,万胜围地铁站A口,113.37836918963126,23.09970634434203,海珠区,地铁站,出入口
BX09907535,万胜围地铁站D口,113.37904360508048,23.10113124855684,海珠区,地铁站,出入口
BX09907612,赤岗地铁站D2口,113.32980441688764,23.09934040298734,海珠区,地铁站,出入口
BX09907622,琶洲地铁站D口,113.36162201981158,23.100623641769133,海珠区,地铁站,出入口
BX09907620,琶洲地铁站A口,113.36152609600742,23.101436431400725,海珠区,地铁站,出入口
BX09907537,万胜围地铁站出入口,113.37850599535555,23.10107567151164,海珠区,地铁站,出入口
BX09907621,琶洲地铁站C口,113.3607262600918,23.10066682381637,海珠区,地铁站,出入口
BX09907619,琶洲地铁站B口,113.36069325168624,23.101465536571315,海珠区,地铁站,出入口
BX09907607,三元里地铁站D口,113.25014085711516,23.16116147294203,越秀区,地铁站,出入口
BX09907605,三元里地铁站A1口,113.25203526008264,23.15997345718412,越秀区,地铁站,出入口
BX10036160,广州火车站地铁站出入口,113.24779924907916,23.14995824295541,越秀区,地铁站,出入口
BX09903052,广州火车站地铁站市政通道五4号口,113.2476942308256,23.150581011283325,越秀区,地铁站,出入口
BX10017899,广州火车站地铁站A口,113.25227780826889,23.15037113405849,越秀区,地铁站,出入口
BX09903049,广州火车站地铁站市政通道五6号口,113.2479532122006,23.149981213998043,越秀区,地铁站,出入口
BX09903050,广州火车站地铁站出入口,113.2481581875182,23.14962632563426,越秀区,地铁站,出入口
BX09903051,广州火车站地铁站市政通道五5号口,113.24848206886286,23.150201052278288,越秀区,地铁站,出入口
BX09903054,广州火车站地铁站市政通道五3号口,113.24839305866216,23.150686874812948,越秀区,地铁站,出入口
BX09907604,三元里地铁站C2口,113.25125336638446,23.162805574759386,越秀区,地铁站,出入口
BX10017894,广州火车站地铁站D2口,113.24978665392968,23.15094752790491,越秀区,地铁站,出入口
BX10021608,天河客运站地铁站C口,113.339897406961,23.173099236277405,天河区,地铁站,出入口
BX10017892,广州火车站地铁站B口,113.25163997135968,23.151662808067005,越秀区,地铁站,出入口
BX10036079,广州火车站地铁站C入口,113.25155298786892,23.15190573630777,越秀区,地铁站,出入口
BX09903048,广州火车站地铁站市政通道六2号口,113.25044951011748,23.14994278053924,越秀区,地铁站,出入口
BX10017895,广州火车站地铁站D1口,113.25026647205596,23.15140424740771,越秀区,地铁站,出入口
BX10017847,天河客运站地铁站B口,113.33735432466808,23.173038869588428,天河区,地铁站,出入口
BX10017849,天河客运站地铁站A口,113.33897113961008,23.17376665271309,天河区,地铁站,出入口
BX10017848,天河客运站地铁站D口,113.33825752284632,23.17370596969686,天河区,地铁站,出入口
BX10017759,燕塘地铁站B口,113.32155606894317,23.16213686808876,天河区,地铁站,出入口
BX09903053,广州火车站地铁站市政通道六1号口,113.25043245837348,23.15079744856004,越秀区,地铁站,出入口
BX10017669,广州东站地铁站J口,113.31992795154908,23.154476958710784,天河区,地铁站,出入口
BX10017663,广州东站地铁站H口,113.31927826776727,23.15483406035417,天河区,地铁站,出入口
BX10017924,西场地铁站C口,113.23272684483952,23.13944100666115,荔湾区,地铁站,出入口
BX10017921,西场地铁站A口,113.23242772612971,23.139530836881995,荔湾区,地铁站,出入口
BX10017922,西场地铁站B口,113.23272882915018,23.13968590992263,荔湾区,地铁站,出入口
BX10032913,天河客运站地铁站出入口,113.33817566031917,23.174016000973,天河区,地铁站,出入口
BX10017923,西场地铁站F口,113.23292586485674,23.140231778883205,荔湾区,地铁站,出入口
BX10017920,西场地铁站E口,113.23305789932968,23.140427757957656,荔湾区,地铁站,出入口
BX10017925,西场地铁站D口,113.23276778651304,23.14053658828935,荔湾区,地铁站,出入口
BX10029532,西村地铁站C口,113.237518744109,23.1458481556733,荔湾区,地铁站,出入口
BX10017807,沙河顶地铁站A口,113.30176675213404,23.149656422206423,天河区,地铁站,出入口
BX10017757,燕塘地铁站C口,113.32206098980438,23.162677692850608,天河区,地铁站,出入口
BX10017758,燕塘地铁站A口,113.32175459232668,23.163117109696334,天河区,地铁站,出入口
BX09907522,越秀公园地铁站C口,113.2550929891892,23.143297945098585,越秀区,地铁站,出入口
BX09900576,彩虹桥地铁站C口,113.23970862068634,23.1373460225968,荔湾区,地铁站,出入口
BX09907523,越秀公园地铁站B2口,113.25574960997484,23.14378448049968,越秀区,地铁站,出入口
BX09907528,越秀公园地铁站出入口,113.25552274308303,23.143613643907365,越秀区,地铁站,出入口
BX10017668,广州东站地铁站D口,113.31909876343629,23.15299212348488,天河区,地铁站,出入口
BX10017666,广州东站地铁站E口,113.31965263406384,23.15279714205401,天河区,地铁站,出入口
BX09902138,西村地铁站E口,113.23607454116674,23.144316342048484,荔湾区,地铁站,出入口
BX10017665,广州东站地铁站F口,113.32062669810362,23.151704708315027,天河区,地铁站,出入口
BX10017682,陈家祠地铁站D口,113.24052727455614,23.128574683078824,荔湾区,地铁站,出入口
BX10017684,陈家祠地铁站A口,113.2405293010276,23.128181842117744,荔湾区,地铁站,出入口
BX10030644,陈家祠地铁站E口,113.24092126680117,23.129019559553303,荔湾区,地铁站,出入口
BX10033775,陈家祠地铁站B口,113.24178035214588,23.12814501486276,荔湾区,地铁站,出入口
BX10017683,陈家祠地铁站C口,113.24173132084712,23.12860082561184,荔湾区,地铁站,出入口
BX10017996,西村地铁站D口,113.23652658399058,23.14523611773107,荔湾区,地铁站,出入口
BX09907525,越秀公园地铁站D1口,113.25493210522788,23.142796208330047,越秀区,地铁站,出入口
BX09900575,彩虹桥地铁站B口,113.24084873411176,23.136908379281465,越秀区,地铁站,出入口
BX10017995,西村地铁站A口,113.2365676670587,23.14413356662112,荔湾区,地铁站,出入口
BX10017994,西村地铁站B口,113.23655263859008,23.144508413623942,荔湾区,地铁站,出入口
BX09907526,越秀公园地铁站B1口,113.25629734801886,23.143189477656883,越秀区,地铁站,出入口
BX10017670,广州东站地铁站I入口,113.31875348905048,23.152792860515195,天河区,地铁站,出入口
BX09907521,越秀公园地铁站D2口,113.25548282631922,23.142690027054027,越秀区,地铁站,出入口
BX10020912,广州东站地铁站B2口,113.31771062573516,23.152974777258645,天河区,地铁站,出入口
BX10020913,广州东站地铁站B1口,113.31736134738716,23.15293745678657,天河区,地铁站,出入口
BX10018012,淘金地铁站A口,113.28175653067734,23.138649621724163,越秀区,地铁站,出入口
BX09900411,彩虹桥地铁站D口,113.23921668096196,23.13566860022116,荔湾区,地铁站,出入口
BX09900410,彩虹桥地铁站A口,113.24001474065813,23.13596962688096,荔湾区,地铁站,出入口
BX10017664,广州东站地铁站G口,113.319251474044,23.1526159792606,天河区,地铁站,出入口
BX09907524,越秀公园地铁站E口,113.25608457238084,23.14161619669398,越秀区,地铁站,出入口
BX10017690,公园前地铁站I2口,113.25766554552848,23.1282638111634,越秀区,地铁站,出入口
BX10017695,西门口地铁站B口,113.25106379372832,23.127673518569523,越秀区,地铁站,出入口
BX10017696,西门口地铁站C口,113.2507828447936,23.128380301620044,越秀区,地铁站,出入口
BX10018061,纪念堂地铁站D2口,113.25758017828588,23.13451133756189,越秀区,地铁站,出入口
BX10017698,西门口地铁站A口,113.25005613284594,23.127667753748824,越秀区,地铁站,出入口
BX10017697,西门口地铁站D口,113.2501290815082,23.128087568435568,越秀区,地铁站,出入口
BX10030643,陈家祠地铁站F口,113.24172923165771,23.1299302887454,荔湾区,地铁站,出入口
BX10030642,陈家祠地铁站G口,113.24193326606562,23.129453501615654,荔湾区,地铁站,出入口
BX09900413,西村地铁站G口,113.2369688345709,23.14290916923154,荔湾区,地铁站,出入口
BX09907456,农讲所地铁站A口,113.26987819700943,23.12883983506355,越秀区,地铁站,出入口
BX10036060,公园前地铁站出入口,113.26193158697149,23.12807743469538,越秀区,地铁站,出入口
BX09900412,西村地铁站F口,113.2362866445214,23.14352172356445,荔湾区,地铁站,出入口
BX09907455,农讲所地铁站D口,113.26955250442728,23.12940390781305,越秀区,地铁站,出入口
BX10019789,公园前地铁站E口,113.26004098224712,23.128181560877067,越秀区,地铁站,出入口
BX10017692,公园前地铁站D口,113.26006799814714,23.12766075568024,越秀区,地铁站,出入口
BX09907454,农讲所地铁站C口,113.27039259715971,23.129536072053032,越秀区,地铁站,出入口
BX09907527,越秀公园地铁站A口,113.25677619795316,23.14135198973556,越秀区,地铁站,出入口
BX10018062,纪念堂地铁站D1口,113.25786205306474,23.133786487889346,越秀区,地铁站,出入口
BX10018063,纪念堂地铁站C口,113.25798782105792,23.136070508337944,越秀区,地铁站,出入口
BX09907633,烈士陵园地铁站B3口,113.28125691956478,23.128735247902203,越秀区,地铁站,出入口
BX09907453,农讲所地铁站出入口,113.27071328267826,23.129016976762788,越秀区,地铁站,出入口
BX09907457,农讲所地铁站B口,113.2709769857147,23.1291206816291,越秀区,地铁站,出入口
BX10017685,公园前地铁站F口,113.25957129546217,23.12839174607393,越秀区,地铁站,出入口
BX10020730,公园前地铁站出入口,113.2596232520814,23.128504670952395,越秀区,地铁站,出入口
BX10017687,公园前地铁站C口,113.25933848613712,23.12792206685956,越秀区,地铁站,出入口
BX10030654,华林寺地铁站C2口,113.24095979206308,23.121212730897373,荔湾区,地铁站,出入口
BX10030373,华林寺地铁站C1口,113.241500813964,23.12117581266825,荔湾区,地铁站,出入口
BX10017658,长寿路地铁站B口,113.237123291261,23.12165076152418,荔湾区,地铁站,出入口
BX10018013,淘金地铁站B口,113.28095863006318,23.139355365486487,越秀区,地铁站,出入口
BX09907634,烈士陵园地铁站C口,113.28120495012908,23.12938705125661,越秀区,地铁站,出入口
BX09907630,烈士陵园地铁站A口,113.27937754608226,23.128980507707844,越秀区,地铁站,出入口
BX09907631,烈士陵园地铁站B1口,113.28086546152376,23.1289916440719,越秀区,地铁站,出入口
BX10017811,一德路地铁站B口,113.25187228639028,23.1158461188696,越秀区,地铁站,出入口
BX10030653,华林寺地铁站E口,113.2415379137766,23.119700418297786,荔湾区,地铁站,出入口
BX09907635,烈士陵园地铁站B2口,113.28051894982858,23.12903506523172,越秀区,地铁站,出入口
BX10017659,长寿路地铁站D1口,113.23604814065772,23.12036796296661,荔湾区,地铁站,出入口
BX10036058,公园前地铁站G口,113.25913559881133,23.12828403301532,越秀区,地铁站,出入口
BX10030374,华林寺地铁站D口,113.24141486881852,23.120323150289902,荔湾区,地铁站,出入口
BX10017694,公园前地铁站J口,113.25905372145134,23.12727448625399,越秀区,地铁站,出入口
BX10030372,华林寺地铁站B口,113.2423688562002,23.12064711194454,荔湾区,地铁站,出入口
BX09907519,文化公园地铁站B口,113.24487932035528,23.111491942605515,荔湾区,地铁站,出入口
BX10028154,同福西地铁站A口,113.2472903913808,23.10475557565703,海珠区,地铁站,出入口
BX10028797,同福西地铁站D口,113.24637856689432,23.10469068429533,海珠区,地铁站,出入口
BX10017812,一德路地铁站A口,113.25179433468956,23.11557525160723,越秀区,地铁站,出入口
BX09907632,烈士陵园地铁站D口,113.27947036396436,23.129783069615417,越秀区,地铁站,出入口
BX10017661,长寿路地铁站A口,113.23714337705395,23.120430264318795,荔湾区,地铁站,出入口
BX10017660,长寿路地铁站E口,113.23641817857472,23.121093782614057,荔湾区,地铁站,出入口
BX10017662,长寿路地铁站D2口,113.236425228879,23.12036708090527,荔湾区,地铁站,出入口
BX10036059,公园前地铁站K口,113.25887174679792,23.128698009769945,越秀区,地铁站,出入口
BX10017785,海珠广场地铁站F口,113.26098801073684,23.11755131444493,越秀区,地铁站,出入口
BX10036054,公园前地铁站I口,113.25854197771186,23.12847527619544,越秀区,地铁站,出入口
BX10036053,公园前地铁站B2口,113.2586719346662,23.12785645728567,越秀区,地铁站,出入口
BX10036056,公园前地铁站H口,113.25856397766783,23.128263350195457,越秀区,地铁站,出入口
BX09907517,文化公园地铁站A口,113.24445537505704,23.11131601807037,荔湾区,地铁站,出入口
BX09907518,文化公园地铁站D口,113.24388136302744,23.11219165117233,荔湾区,地铁站,出入口
BX10017782,海珠广场地铁站A口,113.26083120510388,23.11638188945776,越秀区,地铁站,出入口
BX10028153,同福西地铁站B口,113.24746940218658,23.104034854421418,海珠区,地铁站,出入口
BX10028798,同福西地铁站C口,113.24680953548489,23.10401392991488,海珠区,地铁站,出入口
BX10017834,东湖地铁站A口,113.28344348797698,23.11725004729424,越秀区,地铁站,出入口
BX10017835,东湖地铁站B2口,113.28291421190517,23.11820936208996,越秀区,地铁站,出入口
BX10017836,东湖地铁站B1口,113.28366606948056,23.11850323521889,越秀区,地铁站,出入口
BX10036055,公园前地铁站B1口,113.25852802408264,23.127919508222032,越秀区,地铁站,出入口
BX10017691,公园前地铁站A口,113.2580773139636,23.12789375309312,越秀区,地铁站,出入口
BX09901393,公园前地铁站I1口,113.25829414973408,23.12828948124941,越秀区,地铁站,出入口
BX10017781,海珠广场地铁站E口,113.26013556570624,23.11849744136187,越秀区,地铁站,出入口
BX10017779,海珠广场地铁站B1口,113.25973590884536,23.117564054638027,越秀区,地铁站,出入口
BX10017783,海珠广场地铁站D口,113.25977895892798,23.116372517549472,越秀区,地铁站,出入口
BX10017784,海珠广场地铁站B2口,113.25960297950076,23.117881000831566,越秀区,地铁站,出入口
BX10017780,海珠广场地铁站B3口,113.25973084933476,23.118502673863485,越秀区,地铁站,出入口
BX10036048,海珠广场地铁站出入口,113.25964792963032,23.118161860468952,越秀区,地铁站,出入口
BX10018084,市二宫地铁站E口,113.26454777051153,23.10805778879782,海珠区,地铁站,出入口
BX10017863,区庄地铁站E口,113.29094613827186,23.13739608655917,越秀区,地铁站,出入口
BX10017864,区庄地铁站D口,113.29184460242902,23.137475668369287,越秀区,地铁站,出入口
BX10018085,市二宫地铁站D口,113.26399216831072,23.10928469103285,海珠区,地铁站,出入口
BX09905104,北京路地铁站A2口,113.2640313561002,23.1208769097648,越秀区,地铁站,出入口
BX09907614,黄花岗地铁站B口,113.29383972159708,23.143635072559988,越秀区,地铁站,出入口
BX10017851,北京路地铁站B口,113.26503941346316,23.12179078693,越秀区,地铁站,出入口
BX10032339,北京路地铁站出入口,113.265056390712,23.12190372800308,越秀区,地铁站,出入口
BX09905105,北京路地铁站出入口,113.2642641560615,23.12087474049081,越秀区,地铁站,出入口
BX10017850,北京路地铁站A1口,113.26492257131966,23.120990201851445,越秀区,地铁站,出入口
BX09907613,黄花岗地铁站A口,113.29530409513612,23.144055544939224,越秀区,地铁站,出入口
BX10017711,东山口地铁站C口,113.29023001178976,23.127518151718306,越秀区,地铁站,出入口
BX10017710,东山口地铁站D口,113.29156175973226,23.127509115734192,越秀区,地铁站,出入口
BX10017860,区庄地铁站A口,113.29127063204578,23.1367398504757,越秀区,地铁站,出入口
BX10017862,区庄地铁站C口,113.2924066719857,23.136936007640266,越秀区,地铁站,出入口
BX10018083,市二宫地铁站A口,113.26498933587536,23.1087261805467,海珠区,地铁站,出入口
BX10029953,市二宫地铁站B口,113.26462962079924,23.109219248448568,海珠区,地铁站,出入口
BX10017861,区庄地铁站B2口,113.29236887392032,23.13491387683236,越秀区,地铁站,出入口
BX10017865,区庄地铁站B1口,113.2923179405033,23.135228830214903,越秀区,地铁站,出入口
BX10017644,林和西地铁站D口,113.31883391739974,23.14406214795258,天河区,地铁站,出入口
BX10017646,林和西地铁站A口,113.3183468868426,23.144569875756403,天河区,地铁站,出入口
BX10017645,林和西地铁站C口,113.3188619025505,23.143432344337512,天河区,地铁站,出入口
BX10020723,东山口地铁站4号口,113.2895701399786,23.127107313265416,越秀区,地铁站,出入口
BX10020724,东山口地铁站3号口,113.2893415263509,23.126994701252265,越秀区,地铁站,出入口
BX10017709,东山口地铁站F口,113.28970697396426,23.12619947540616,越秀区,地铁站,出入口
BX10017712,东山口地铁站E口,113.29027903015272,23.126029680128543,越秀区,地铁站,出入口
BX10017842,团一大广场地铁站A口,113.27277948153724,23.121070155243498,越秀区,地铁站,出入口
BX10017841,团一大广场地铁站B口,113.2727205912108,23.120459464397587,越秀区,地铁站,出入口
BX10017655,杨箕地铁站C口,113.30386793990836,23.131508949027086,越秀区,地铁站,出入口
BX09907473,体育西路地铁站A口,113.31578788204108,23.13381103381542,天河区,地铁站,出入口
BX09907479,体育西路地铁站G口,113.31576800048823,23.132668530684807,天河区,地铁站,出入口
BX09907511,体育中心地铁站C口,113.32263747643606,23.138070259518773,天河区,地铁站,出入口
BX10017652,杨箕地铁站B口,113.30370031959085,23.130699572696784,越秀区,地铁站,出入口
BX10017654,杨箕地铁站A口,113.302727230666,23.130206490691545,越秀区,地铁站,出入口
BX09905180,体育中心南地铁站出入口,113.318299523697,23.13664312275292,天河区,地铁站,出入口
BX10018002,华师地铁站E口,113.34056416511696,23.1434335663763,天河区,地铁站,出入口
BX10018003,华师地铁站B口,113.33954512230176,23.14326846033232,天河区,地铁站,出入口
BX10017656,杨箕地铁站E1口,113.30166223483768,23.130714150968966,越秀区,地铁站,出入口
BX09907508,岗顶地铁站A口,113.33433168733974,23.13782218294185,天河区,地铁站,出入口
BX10017643,林和西地铁站B口,113.3173709786562,23.143367211641227,天河区,地铁站,出入口
BX10030192,东山口地铁站2号口,113.28878147787492,23.12656370925569,越秀区,地铁站,出入口
BX10017653,杨箕地铁站F口,113.30196276127587,23.12923922158328,越秀区,地铁站,出入口
BX10017651,体育中心南地铁站A口,113.3180959451676,23.136613522662,天河区,地铁站,出入口
BX09907512,体育中心地铁站B口,113.32315640461616,23.13809125780523,天河区,地铁站,出入口
BX09907503,天河南地铁站出入口,113.3187727251793,23.134043262435508,天河区,地铁站,出入口
BX09907502,天河南地铁站A口,113.31862202678438,23.13417649645781,天河区,地铁站,出入口
BX09907513,体育中心地铁站D1口,113.32265650008344,23.137146592348632,天河区,地铁站,出入口
BX09907476,体育西路地铁站B口,113.3172349356035,23.133412445956186,天河区,地铁站,出入口
BX09907515,体育中心地铁站D2口,113.32265653187127,23.13667877946332,天河区,地铁站,出入口
BX09907510,体育中心地铁站A口,113.32330715924714,23.13712935377633,天河区,地铁站,出入口
BX09907561,石牌桥地铁站B口,113.32725914791487,23.13545747089382,天河区,地铁站,出入口
BX09907447,黄埔大道地铁站A口,113.31929294505488,23.12974100131836,天河区,地铁站,出入口
BX10020892,杨箕地铁站E2口,113.3020445804058,23.129600932512467,越秀区,地铁站,出入口
BX10017657,杨箕地铁站D口,113.30235590533448,23.13076891616391,越秀区,地铁站,出入口
BX09907475,体育西路地铁站C口,113.31720695599186,23.13395927952164,天河区,地铁站,出入口
BX09907478,体育西路地铁站出入口,113.31731574784844,23.13372816536236,天河区,地铁站,出入口
BX10018004,华师地铁站D口,113.33959211523542,23.14205385810548,天河区,地铁站,出入口
BX10018005,华师地铁站C口,113.33884850826044,23.142591986858367,天河区,地铁站,出入口
BX09907507,岗顶地铁站D口,113.33514410200442,23.137434829640814,天河区,地铁站,出入口
BX09907516,体育中心地铁站出入口,113.32197002040432,23.135621516960327,天河区,地铁站,出入口
BX10017916,动物园地铁站C口,113.30216580863272,23.137570518772243,越秀区,地铁站,出入口
BX09907509,岗顶地铁站B口,113.33376583122369,23.137576335287235,天河区,地铁站,出入口
BX09907504,花城大道地铁站A口,113.31913179312816,23.12215738298622,天河区,地铁站,出入口
BX09907505,花城大道地铁站B口,113.31913284058282,23.12142767813887,天河区,地铁站,出入口
BX09907559,石牌桥地铁站A口,113.32590391889644,23.135585005726234,天河区,地铁站,出入口
BX10018000,猎德地铁站C口,113.32711739009729,23.121488386740225,天河区,地铁站,出入口
BX10017999,猎德地铁站D口,113.32618330448712,23.121503162908613,天河区,地铁站,出入口
BX10018001,猎德地铁站A口,113.3264408272418,23.1207509778254,天河区,地铁站,出入口
BX10022822,猎德地铁站B口,113.32728310578187,23.120680400147705,天河区,地铁站,出入口
BX09907572,冼村地铁站G口,113.3224036564578,23.127822826971364,天河区,地铁站,出入口
BX10017648,大剧院地铁站B口,113.31952023617536,23.11856610587552,天河区,地铁站,出入口
BX10017647,大剧院地铁站A口,113.3187428397226,23.118558593120103,天河区,地铁站,出入口
BX10017649,大剧院地铁站E口,113.31915794187287,23.119176548399828,天河区,地铁站,出入口
BX09907474,体育西路地铁站E口,113.31648539141112,23.13466936594958,天河区,地铁站,出入口
BX09907480,体育西路地铁站H口,113.31637271972946,23.13324515179209,天河区,地铁站,出入口
BX09907477,体育西路地铁站D口,113.31644650643942,23.13415264716876,天河区,地铁站,出入口
BX10017901,珠江新城地铁站A2口,113.31454220890492,23.12240800095596,天河区,地铁站,出入口
BX09901394,猎德地铁站出入口,113.3273121687821,23.118882078661308,天河区,地铁站,出入口
BX10017915,动物园地铁站B口,113.30177954693568,23.13756719517858,越秀区,地铁站,出入口
BX09907506,岗顶地铁站C口,113.33377385963172,23.13692558056989,天河区,地铁站,出入口
BX09907565,石牌桥地铁站出入口,113.32572529477932,23.13545439930373,天河区,地铁站,出入口
BX09907563,石牌桥地铁站BRT口,113.32737487739088,23.13595005296866,天河区,地铁站,出入口
BX09907564,石牌桥地铁站出入口,113.32750859084996,23.136138722645224,天河区,地铁站,出入口
BX10017953,潭村地铁站C口,113.34136223613584,23.120278464231248,天河区,地铁站,出入口
BX10017634,妇儿中心地铁站B口,113.3195507033046,23.1254782336534,天河区,地铁站,出入口
BX10017955,潭村地铁站B口,113.34093010562614,23.119512545458687,天河区,地铁站,出入口
BX10017956,潭村地铁站A口,113.33944793046906,23.119536192466377,天河区,地铁站,出入口
BX09907514,体育中心地铁站D3口,113.3223691471582,23.136350461001456,天河区,地铁站,出入口
BX10017638,海心沙地铁站A口,113.31868621103074,23.114813234630645,天河区,地铁站,出入口
BX09907573,冼村地铁站B口,113.32297042091324,23.128798347706663,天河区,地铁站,出入口
BX09907574,冼村地铁站A口,113.32296055801696,23.1270830603019,天河区,地铁站,出入口
BX10017903,珠江新城地铁站A1口,113.31549722894847,23.122763050637303,天河区,地铁站,出入口
BX10017954,潭村地铁站D口,113.33982016215212,23.12034319315666,天河区,地铁站,出入口
BX10017633,妇儿中心地铁站A口,113.31886511676308,23.125484540139865,天河区,地铁站,出入口
BX09907562,石牌桥地铁站D口,113.32539890698756,23.136315677964696,天河区,地铁站,出入口
BX09907560,石牌桥地铁站出入口,113.32609048297545,23.13635933923717,天河区,地铁站,出入口
BX10009701,珠江新城地铁站D口,113.31640139921024,23.122380491808045,天河区,地铁站,出入口
BX10017967,五羊邨地铁站D口,113.3084135839352,23.12275827920939,越秀区,地铁站,出入口
BX10029984,天河公园地铁站E2口,113.35680208343268,23.12871484152957,天河区,地铁站,出入口
BX10028607,天河公园地铁站E1口,113.35710262044276,23.12880736671468,天河区,地铁站,出入口
BX10017966,五羊邨地铁站A口,113.3084256029971,23.12212351546755,越秀区,地铁站,出入口
BX10027334,天河公园地铁站F口,113.35697592189332,23.127213195463337,天河区,地铁站,出入口
BX09907588,棠东地铁站B口,113.3851139296175,23.13302247555601,天河区,地铁站,出入口
BX09907587,棠东地铁站C口,113.384733036278,23.13394829424019,天河区,地铁站,出入口
BX09907585,棠东地铁站A口,113.38372656250397,23.133299086942312,天河区,地铁站,出入口
BX09907586,棠东地铁站D口,113.3837185417278,23.13365994638658,天河区,地铁站,出入口
BX10028606,天河公园地铁站B口,113.357811760542,23.125788565641034,天河区,地铁站,出入口
BX10017900,珠江新城地铁站B2口,113.31533864860502,23.12137091761312,天河区,地铁站,出入口
BX09907567,黄村地铁站B口,113.40139599860096,23.133937710152235,天河区,地铁站,出入口
BX09907571,黄村地铁站A口,113.40071464599257,23.135835817341107,天河区,地铁站,出入口
BX09907570,黄村地铁站D口,113.4022372413583,23.13486153071503,天河区,地铁站,出入口
BX09907566,黄村地铁站E口,113.40156094139782,23.135604076876863,天河区,地铁站,出入口
BX09907569,黄村地铁站F口,113.40116876035464,23.13628972107751,天河区,地铁站,出入口
BX10017964,五羊邨地铁站C口,113.30929181460871,23.12294558790547,越秀区,地铁站,出入口
BX09907597,车陂地铁站D口,113.39062865304813,23.126646961096547,天河区,地铁站,出入口
BX10017965,五羊邨地铁站B口,113.30927291696926,23.12199500955405,越秀区,地铁站,出入口
BX10017902,珠江新城地铁站B1口,113.3154814127342,23.12053498804488,天河区,地铁站,出入口
BX10017742,沙园地铁站B口,113.2550695418378,23.09053452348915,海珠区,地铁站,出入口
BX10017743,沙园地铁站A口,113.25461372068972,23.09129838210128,海珠区,地铁站,出入口
BX10020739,沙园地铁站C口,113.25592407985782,23.090666112585133,海珠区,地铁站,出入口
BX10024812,珠江新城地铁站C口,113.31631364418882,23.12142804620586,天河区,地铁站,出入口
BX10018052,江南西地铁站E口,113.26828172353756,23.101030675017096,海珠区,地铁站,出入口
BX10018051,江南西地铁站D口,113.2680439988426,23.10049010655481,海珠区,地铁站,出入口
BX10018053,江南西地铁站C口,113.26894313587675,23.09972363276397,海珠区,地铁站,出入口
BX10018054,江南西地铁站A口,113.26827686650569,23.09897553397446,海珠区,地铁站,出入口
BX09907598,车陂地铁站C口,113.3894709046844,23.12650834962963,天河区,地铁站,出入口
BX10017744,沙园地铁站D口,113.2548895345509,23.09201297572076,海珠区,地铁站,出入口
BX10017881,晓港地铁站A口,113.27643368957024,23.09597655574759,海珠区,地铁站,出入口
BX10017883,晓港地铁站C口,113.2764047837277,23.09512894251635,海珠区,地铁站,出入口
BX10017882,晓港地铁站D口,113.27711683470312,23.0955199610449,海珠区,地铁站,出入口
BX10017750,宝岗大道地铁站C口,113.26350198493888,23.08839273806814,海珠区,地铁站,出入口
BX10017751,宝岗大道地铁站A口,113.26441317635678,23.08886587969021,海珠区,地铁站,出入口
BX10021718,昌岗地铁站出入口,113.27001657352328,23.09128917191624,海珠区,地铁站,出入口
BX10017801,昌岗地铁站C2口,113.27112419848449,23.093790071837496,海珠区,地铁站,出入口
BX10017800,昌岗地铁站C1口,113.27182538481809,23.09420221167296,海珠区,地铁站,出入口
BX10018093,江泰路地铁站A口,113.27593812174273,23.084093098960388,海珠区,地铁站,出入口
BX10018092,江泰路地铁站B2口,113.27545268953337,23.08475636150669,海珠区,地铁站,出入口
BX10018089,江泰路地铁站D口,113.27531191050664,23.084089797916764,海珠区,地铁站,出入口
BX10018091,江泰路地铁站B1口,113.27519497409244,23.085313411724563,海珠区,地铁站,出入口
BX10018090,江泰路地铁站C口,113.27470758375846,23.085214985791936,海珠区,地铁站,出入口
BX10021975,江泰路地铁站出入口,113.27438099656165,23.08502042039576,海珠区,地铁站,出入口
BX10017867,凤凰新村地铁站A口,113.25115180103424,23.09727298830717,海珠区,地铁站,出入口
BX10020733,江南西地铁站B口,113.26840076247248,23.098658557380453,海珠区,地铁站,出入口
BX10017775,中大地铁站B口,113.28675085014387,23.095510447350776,海珠区,地铁站,出入口
BX10017752,宝岗大道地铁站D口,113.26528642575072,23.08852936115606,海珠区,地铁站,出入口
BX10017837,客村地铁站B口,113.31427632825468,23.09919606074652,海珠区,地铁站,出入口
BX10021976,江南西地铁站出入口,113.26800616836417,23.098529954849223,海珠区,地铁站,出入口
BX10017805,昌岗地铁站E口,113.27041611492646,23.091707621339605,海珠区,地铁站,出入口
BX10017840,客村地铁站C口,113.31409974128916,23.09842571449338,海珠区,地铁站,出入口
BX10017866,凤凰新村地铁站B口,113.25108575540946,23.098306574340302,海珠区,地铁站,出入口
BX10017793,鹭江地铁站D口,113.30375644786312,23.09766602683292,海珠区,地铁站,出入口
BX10017802,昌岗地铁站B口,113.27237479933557,23.093575923229835,海珠区,地铁站,出入口
BX10017776,中大地铁站C1口,113.2868887004064,23.094481679588355,海珠区,地铁站,出入口
BX10017806,昌岗地铁站D口,113.27019529268328,23.092613450255826,海珠区,地铁站,出入口
BX10035975,昌岗地铁站出入口,113.27079068263409,23.092060117066385,海珠区,地铁站,出入口
BX10017838,客村地铁站A口,113.31565650692224,23.09913347750214,海珠区,地铁站,出入口
BX10017795,鹭江地铁站A1口,113.30343103463088,23.098298340091844,海珠区,地铁站,出入口
BX10017794,鹭江地铁站C口,113.30209664848668,23.097577988619168,海珠区,地铁站,出入口
BX10017792,鹭江地铁站B口,113.30225430047216,23.098263426970185,海珠区,地铁站,出入口
BX10020902,鹭江地铁站A2口,113.3034160574122,23.098389328697245,海珠区,地铁站,出入口
BX10021613,昌岗地铁站F口,113.27153884216558,23.092206329524657,海珠区,地铁站,出入口
BX10017803,昌岗地铁站A口,113.27228597283174,23.092514456881283,海珠区,地铁站,出入口
BX10017839,客村地铁站D口,113.31559667594202,23.098450875085884,海珠区,地铁站,出入口
